ord,id,nom_estab,raz_social,codigo_act,nombre_act,per_ocu,tipo_vial,nom_vial,tipo_v_e_1,nom_v_e_1,tipo_v_e_2,nom_v_e_2,tipo_v_e_3,nom_v_e_3,numero_ext,letra_ext,edificio,edificio_e,numero_int,letra_int,tipo_asent,nomb_asent,tipoCenCom,nom_CenCom,num_local,cod_postal,cve_ent,entidad,cve_mun,municipio,cve_loc,localidad,ageb,manzana,telefono,correoelec,www,tipoUniEco,latitud,longitud,fecha_alta,subrama
7,4079907,ABARROTES OXXITO,,311340,"Elaboración de dulces, chicles y productos de confitería que no sean de chocolate",0 a 5 personas,CALLE,21 DE MARZO,CALLE,23 DE ENERO,CALLE,NINGUNO,AVENIDA,16 DE SEPTIEMBRE,128,,,NA,NA,,COLONIA,BENITO JUAREZ,,,,87090,28,TAMAULIPAS,41,Victoria,1,Ciudad Victoria,897,36,,,,Fijo,23.73725528,-99.12780562,2014-12,31134
50,6457390,CAFE DOS ESTRELLAS,CAFÉ DOS ESTRELLAS ,311922,Elaboración de café tostado y molido,0 a 5 personas,CALLE,SIERRA DE CASAS,CALLE,JOSE MARIA PINO SUAREZ,CALLE,DOCTOR NORBERTO TREVIÑO ZAPATA (16),CALLE,SIERRA GORDA,129,B,,NA,NA,,FRACCIONAMIENTO,VILLAREAL,,,,87027,28,TAMAULIPAS,41,Victoria,1,Ciudad Victoria,670,36,,,,Fijo,23.7656493,-99.1481104,2014-12,31192
84,4123937,CHORIZO MATA,,311613,"Preparación de embutidos y otras conservas de carne de ganado, aves y otros animales comestibles",0 a 5 personas,CALLE,HERNAN CORTES,CALLE,REPUBLICA DE PANAMA,CALLE,REPUBLICA SANTO DOMINGO,CALLE,SIMÓN BOLÍVAR,1123,,,NA,NA,,COLONIA,PEDRO SOSA,,,,87120,28,TAMAULIPAS,41,Victoria,1,Ciudad Victoria,1151,24,8342117179,,,Fijo,23.72006466,-99.13505852,2010-07,31161
88,9334223,CITRICOS BEBIDAS Y DERIVADOS DE VICTORIA,CITRICOS BEBIDAS Y DERIVADOS DE VICTORIA SC,311930,"Elaboración de concentrados, polvos, jarabes y esencias de sabor para bebidas",0 a 5 personas,CALLE,IGNACIO MEJÍA,CALLE,BRÍGIDA GARCÍA,CALLE,23 DE ENERO,CALLE,IGNACIO MEJÍA,0,SN,,NA,0,SN,COLONIA,BENITO JUAREZ,,,,NA,28,TAMAULIPAS,41,Victoria,1,Ciudad Victoria,090A,1,,,,Fijo,23.74027548,-99.12411979,2021-05,31193
318,9354357,LA GRANJA DE SAN ANDRES,LA GRANGRA DE SAN ANDRES ,311412,Congelación de guisos y otros alimentos preparados,6 a 10 personas,BOULEVARD,TAMAULIPAS,CALLE,ZACATECAS,OTRO (ESPECIFIQUE),MANZANA O EDIFICACION CONTIGUA,PRIVADA,CALLE 7,3252,,,NA,0,,FRACCIONAMIENTO,LAS HUERTAS,,,A,87025,28,TAMAULIPAS,41,Victoria,1,Ciudad Victoria,469,18,8341127260,,,Fijo,23.75583254,-99.14098097,2021-05,31141
369,9367007,MARISCOS EL GRANMA,,311710,Preparación y envasado de pescados y mariscos,0 a 5 personas,CALLE,CALLE DEL VALLE,BOULEVARD,TAMAULIPAS,CALLE,NINGUNO,CALLE,CALLE DEL VALLE,1126,,,1,NA,,FRACCIONAMIENTO,RECDENCIAS CABAÑAS,OTRO CONGLOMERADO,NO ES CONGLOMERADO,0,87025,28,TAMAULIPAS,41,Victoria,1,Ciudad Victoria,469,34,,,,Fijo,23.76112853,-99.13752931,2021-05,31171
517,7933681,MOLINO LA CARRETA,,311830,Elaboración de tortillas de maíz y molienda de nixtamal,0 a 5 personas,CALLE,LICENCIADO ZEFERINO FAJARDO LUNA,CALLE,CIUDAD MADERO,CALLE,TAMPICO,CALLE,IGNACIO ZARAGOZA,0,SN,,NA,0,,COLONIA,ENRIQUE CARDENAS,,,,87010,28,TAMAULIPAS,41,Victoria,1,Ciudad Victoria,488,25,8341476526,,,Fijo,23.76045887,-99.16612547,2019-11,31183
621,9344803,MONTONERAS DONAS,,311910,Elaboración de botanas,0 a 5 personas,BOULEVARD,TAMAULIPAS,CALLE,RAFAEL BALANDRANO,CALLE,ARTURO OLIVARES,CALLE,ARTURO OLIVARES,3262,,,1,NA,,FRACCIONAMIENTO,CAMPESTRE,OTRO CONGLOMERADO,NO ES CONGLOMERADO,0,NA,28,TAMAULIPAS,41,Victoria,1,Ciudad Victoria,469,5,,,,Fijo,23.76321942,-99.13988123,2021-05,31191
665,4111056,PALETERIA SANTA MONICA,,311520,Elaboración de helados y paletas,6 a 10 personas,CALLE,COAHUILA,CALLE,COAHUILA,CALLE,JOSE MA PINO SUAREZ,PRIVADA,NINGUNO,0,SN,,NA,0,,COLONIA,PERIODISTA,,,,87040,28,TAMAULIPAS,41,Victoria,1,Ciudad Victoria,736,30,,,,Fijo,23.74872024,-99.15154308,2010-07,31152
702,8929052,PANADERIA,,311812,Panificación tradicional,0 a 5 personas,CALLE,REFORMA,CALLE,FRANCISCO I. MADERO,CALLE,JOSE MARIA PINO SUAREZ,CALLE,CONSTITUCIÓN,236,,,NA,0,,COLONIA,LAS PALMAS,,,,87140,28,TAMAULIPAS,41,Victoria,1,Ciudad Victoria,1096,20,8341609950,,,Fijo,23.72044909,-99.15345284,2019-11,31181
711,4082606,PANADERIA,,311812,Panificación tradicional,0 a 5 personas,CALLE,ALCATRAZ,CALLE,LICENCIADO BENITO JUAREZ,CALLE,MELCHOR OCAMPO,CALLE,AZUCENA,0,SN,,NA,0,,COLONIA,AMERICA DE JUAREZ,,,,87078,28,TAMAULIPAS,41,Victoria,1,Ciudad Victoria,1950,2,,,,Fijo,23.72870504,-99.17233576,2014-12,31181
989,4122434,PANADERÍA LA SAN MARQUEÑA,,311812,Panificación tradicional,0 a 5 personas,AVENIDA,CRISTOBAL COLON (9),CALLE,JUAN JOSE DE LA GARZA,BOULEVARD,LUIS ECHEVERRIA,CALLE,HERMANOS VÁZQUEZ GÓMEZ,302,,,NA,NA,,COLONIA,GUADALUPE MAINERO,,,,87100,28,TAMAULIPAS,41,Victoria,1,Ciudad Victoria,1043,2,8342150996,,,Fijo,23.72791551,-99.14555244,2010-07,31181
1155,8873223,PANADERIA SIN NOMBRE,,311812,Panificación tradicional,0 a 5 personas,CALLE,LEALTAD,CALLE,ESCUELA ANEXA,CALLE,ERNESTO M. DE KERATRY,CALLE,HACIENDA DE LAS BORREGAS,2870,,,NA,NA,,COLONIA,EMILIO CABALLERO,,,,87014,28,TAMAULIPAS,41,Victoria,1,Ciudad Victoria,1611,14,,,,Fijo,23.75798321,-99.1749768,2019-11,31181
1162,8787851,PANADERIA SIN NOMBRE,,311812,Panificación tradicional,0 a 5 personas,CALLE,LOMA BONITA,CALLE,NINGUNO,CALLE,ÓPALOS,CALLE,LOMA BLANCA,NA,SN,,NA,NA,,COLONIA,LOMA ALTA 2,,,,87180,28,TAMAULIPAS,41,Victoria,1,Ciudad Victoria,247A,35,8341500527,,,Fijo,23.70096638,-99.14468241,2019-11,31181
1174,8785069,PANADERIA SIREH,,311812,Panificación tradicional,0 a 5 personas,CALLE,MAESTRA ESTEFANIA CASTAÑEDA,CALLE,NICOLAS BRAVO,CALLE,VICENTE GUERRERO,CALLE,21 DE DICIEMBRE,NA,SN,,NA,NA,,COLONIA,VICTORIA,,,,87090,28,TAMAULIPAS,41,Victoria,1,Ciudad Victoria,990,33,,,,Fijo,23.73240908,-99.12443881,2019-11,31181
1288,4117734,PANIFICADORA Y PASTELERIA ISLAS DE MEXICO,,311812,Panificación tradicional,0 a 5 personas,BOULEVARD,LIBRAMIENTO DE TRANSITO PESADO LICENCIADO EMILIO PORTES GIL,CALLE,ZEFERINO MORALES,CALLE,ARTICULO 27,CALLE,ARTÍCULO 27,NA,SN,,NA,NA,,COLONIA,AMERICO VILLARREAL GUERRA,,,,87070,28,TAMAULIPAS,41,Victoria,1,Ciudad Victoria,1289,41,,,,Fijo,23.72036012,-99.18200321,2010-07,31181
1440,7929437,PIQUINES MEXICANO,PEN09110FV9 SPR DE RL DE CV,311423,Conservación de guisos y otros alimentos preparados por procesos distintos a la congelación,0 a 5 personas,CALLE,VENUSTIANO CARRANZA (22),CALLE,OLIVIA RAMIREZ,CALLE,CONRADO CASTILLO,CALLE,FERMÍN LEGORRETA (21),0,SN,,NA,0,,COLONIA,ASCENCION GOMEZ,,,,87040,28,TAMAULIPAS,41,Victoria,1,Ciudad Victoria,806,16,,,PIQUINESMEXICANO.COM,Fijo,23.74493172,-99.15599589,2019-11,31142
2548,4123665,TORTILLERÍA LA ESTRELLA,,311830,Elaboración de tortillas de maíz y molienda de nixtamal,0 a 5 personas,CALLE,CONSTITUCION,CALLE,MIER Y TERAN,CALLE,JOSE MARIA PINO SUAREZ,CALLE,REFORMA,0,SN,,NA,0,,COLONIA,LAS PALMAS,,,,87140,28,TAMAULIPAS,41,Victoria,1,Ciudad Victoria,1096,19,8341441472,,,Fijo,23.72005733,-99.15486597,2010-07,31183
2588,4122566,TORTILLERÍA LA LOMA,,311830,Elaboración de tortillas de maíz y molienda de nixtamal,0 a 5 personas,CALLE,REPUBLICA DE MEXICO,CALLE,GENERAL SERVANDO CANALES,CALLE,SUBIDA AL SANTUARIO,CALLE,REPÚBLICA DE MÉXICO,827,,,NA,0,,COLONIA,GUADALUPE MAINERO,,,,87100,28,TAMAULIPAS,41,Victoria,1,Ciudad Victoria,1109,6,8343128948,,,Fijo,23.72365497,-99.14463152,2010-07,31183
2755,4100319,TORTILLERIA LIBERTAD,,311830,Elaboración de tortillas de maíz y molienda de nixtamal,0 a 5 personas,CALLE,ARGENTINA,CALLE,VENEZUELA,CALLE,ALASKA,CALLE,URUGUAY,NA,SN,,NA,NA,,COLONIA,LA LIBERTAD,,,,87019,28,TAMAULIPAS,41,Victoria,1,Ciudad Victoria,435,8,,,,Fijo,23.77182199,-99.1689982,2010-07,31183
2789,9367654,TORTILLERIA LOS TRES GARCIA,TORTILLERIA LOS TRES GARCIA ,311830,Elaboración de tortillas de maíz y molienda de nixtamal,0 a 5 personas,CALLE,RICARDO FLORES MAGON,CALLE,GENERAL LAZARO CARDENAS DEL RIO,CALLE,GENERAL FRANCISCO VILLA,CALLE,DOCTOR CARLOS CANALES,402,SN,,NA,NA,,COLONIA,DOCTORES,,,,87024,28,TAMAULIPAS,41,Victoria,1,Ciudad Victoria,469,45,,,,Fijo,23.75127016,-99.13674842,2021-05,31183
2811,7929680,TORTILLERIA LUPITA 2,,311830,Elaboración de tortillas de maíz y molienda de nixtamal,0 a 5 personas,CALLE,RIO ALAMO,CALLE,RIO LAS ABEJAS,CALLE,RIO CHIHUE,CALLE,RÍO CARRIZAL,0,SN,,NA,0,,COLONIA,LUIS ECHEVERRIA ALVAREZ,,,,87060,28,TAMAULIPAS,41,Victoria,1,Ciudad Victoria,1113,8,,,,Fijo,23.7103337,-99.18525489,2019-11,31183
2924,4100310,TORTILLERIA PEREZ,,311830,Elaboración de tortillas de maíz y molienda de nixtamal,0 a 5 personas,CALLE,COLOMBIA,CALLE,JAMAICA,CALLE,ARGENTINA,CALLE,ALASKA,314,,,NA,NA,,COLONIA,LA LIBERTAD,,,,87019,28,TAMAULIPAS,41,Victoria,1,Ciudad Victoria,435,5,,,,Fijo,23.77156132,-99.1632571,2010-07,31183
2972,4110227,TORTILLERIA ROVI,,311830,Elaboración de tortillas de maíz y molienda de nixtamal,0 a 5 personas,CALLE,DOCTOR NORBERTO TREVIÑO ZAPATA (16),CALLE,SARA PEÑA,CALLE,PROFESOR PATROCINIO HUERTA,CALLE,EMILIANO P. NAFARRETE (14),0,SN,,NA,0,,COLONIA,MAGISTERIAL,,,,87026,28,TAMAULIPAS,41,Victoria,1,Ciudad Victoria,069A,1,,,,Fijo,23.76356414,-99.14804709,2010-07,31183
3012,4110776,TORTILLERIA SAN LUISITO,,311830,Elaboración de tortillas de maíz y molienda de nixtamal,0 a 5 personas,CALLE,GOLFO DE MEXICO,CALLE,MAR BALTICO,CALLE,MAR CASPIO,CALLE,MAR CARIBE,601,,,NA,NA,,FRACCIONAMIENTO,SAN LUISITO,,,,87049,28,TAMAULIPAS,41,Victoria,1,Ciudad Victoria,492,12,,,,Fijo,23.76092384,-99.15527384,2010-07,31183
3105,4117792,TORTILLERIA Y ABARROTES ALONDRA,,311830,Elaboración de tortillas de maíz y molienda de nixtamal,0 a 5 personas,CALZADA,GENERAL LUIS CABALLERO,CALLE,NINGUNO,BOULEVARD,LIBRAMIENTO DE TRANSITO PESADO LICENCIADO EMILIO PORTES GIL,CALLE,SIERRA MADRE,NA,SN,,NA,NA,,COLONIA,AMERICO VILLARREAL GUERRA,,,,87070,28,TAMAULIPAS,41,Victoria,1,Ciudad Victoria,1293,37,,,,Fijo,23.71237304,-99.17461208,2010-07,31183
3160,4123979,TORTILLERIA YAHVE,,311830,Elaboración de tortillas de maíz y molienda de nixtamal,0 a 5 personas,CALLE,UNIDOS VENCEREMOS,CALLE,NIÑO ARTILLERO,CALLE,CHAPULTEPEC,CALLE,FERNANDO MONTES DE OCA,NA,SN,,NA,NA,,COLONIA,CHAPULTEPEC,,,,87130,28,TAMAULIPAS,41,Victoria,1,Ciudad Victoria,2164,37,,,,Fijo,23.71673577,-99.12281373,2010-07,31183
3173,8912693,TORTILLERIA ZU LEE,,311830,Elaboración de tortillas de maíz y molienda de nixtamal,0 a 5 personas,CALLE,CAMINO A LA LIBERTAD,CALLE,SATURNO,CALLE,JUPITER,CALLE,CONSTELACIÓN,NA,SN,,NA,NA,,COLONIA,ESTRELLA,,,,87015,28,TAMAULIPAS,41,Victoria,1,Ciudad Victoria,1185,12,,,,Fijo,23.77241202,-99.1741127,2019-11,31183
3235,7929625,VENTA DE MASA Y MAIZ SIN NOMBRE,,311830,Elaboración de tortillas de maíz y molienda de nixtamal,0 a 5 personas,CALLE,RIO PURIFICACION,CALLE,RIO SANTA CATARINA,CALLE,RIO SAN CRISTOBAL,CALLE,RÍO SAN CRISTÓBAL,110,,,NA,NA,,COLONIA,SAN MARCOS DOS,,,,87156,28,TAMAULIPAS,41,Victoria,1,Ciudad Victoria,628,23,,,,Fijo,23.70209111,-99.17920312,2019-11,31183
3279,4081435,VENTA DE TORTILLAS DE HARINA SAN JUANITA,,311813,Elaboración de tortillas de harina de trigo de forma tradicional,0 a 5 personas,CALLE,MIGUEL HIDALGO Y COSTILLA,CALLE,JOSE DE ESCANDON Y HELGUERA (0),CALLE,F. DE LA GARZA (1),CALLE,LICENCIADO BENITO JUÁREZ,1706,,,NA,NA,,COLONIA,ZONA CENTRO,,,,87000,28,TAMAULIPAS,41,Victoria,1,Ciudad Victoria,971,25,,,,Fijo,23.73067672,-99.13775236,2014-12,31181
3296,6875420,4 ASES CITRUS,4 ASES CITRUS SPR DE RL DE CV,431130,Comercio al por mayor de frutas y verduras frescas,31 a 50 personas,CARRETERA,CARRETERA VICTORIA MONTERREY,OTRO (ESPECIFIQUE),SAN ANTONIO,CALLE,SIN NOMBRE,OTRO (ESPECIFIQUE),MANZANA 800,0,SN,,NA,0,,EJIDO,BENITO JUAREZ,,,,87260,28,TAMAULIPAS,41,Victoria,778,Ninguno,1467,800,,CRISTOSANTIAGOHDZ@HOTMAIL.COM,,Fijo,23.79121683,-99.13420522,2019-04,43113
3406,6276422,"CARNES VICTORIA, S.A. DE C.V.  AL POR MAYOR",CARNES VICTORIA SA DE CV,431121,Comercio al por mayor de carnes rojas,11 a 30 personas,CALLE,PAMES,CALLE,J. BAUTISTA DE M.,AVENIDA,JOSÉ SULAIMÁN CHAGNON,VIADUCTO,NINGUNO,521,,,NA,NA,,COLONIA,AMPLIACION ADOLFO LOPEZ MATEOS,,,,87020,28,TAMAULIPAS,41,Victoria,1,Ciudad Victoria,825,30,,,,Fijo,23.74321582,-99.130783,2010-07,43112
3424,4100972,CENTRO DE DISTRIBUCIÓN DE HUEVO,,431140,Comercio al por mayor de huevo,0 a 5 personas,CALLE,SAN BENITO,OTRO (ESPECIFIQUE),NINGUNO,CALLE,SAN VALENTIN,CALLE,SAN JUAN,2606,,,NA,NA,M24 L11,COLONIA,EL MIRADOR,,,,87014,28,TAMAULIPAS,41,Victoria,1,Ciudad Victoria,119A,7,,LUIS_SALAS1215@HOTMAIL.COM,,Fijo,23.75378687,-99.17609738,2010-07,43114
3592,6702723,JD ABARROTES Y PERECEDEROS  SUCURSAL VICTORIA,JD ABARROTES Y PERECEDEROS SA DE CV,431110,Comercio al por mayor de abarrotes,6 a 10 personas,AVENIDA,JOSE SULAIMAN CHAGNON,BOULEVARD,FIDEL VELÁZQUEZ SÁNCHEZ,CALLE,20 DE NOVIEMBRE,CALLE,18 DE JULIO,2010,,,NA,NA,,COLONIA,EMILIANO ZAPATA,,,,87080,28,TAMAULIPAS,41,Victoria,1,Ciudad Victoria,051A,7,,ALEJANDRA.ELIZALDE@SPMIRAMAR.COM,,Fijo,23.75256677,-99.16803109,2016-01,43111
3652,6806054,PROGRAMA DE ABASTO SOCIAL TAMAULIPAS,LICONSA SA DE CV,431160,Comercio al por mayor de leche y otros productos lácteos,0 a 5 personas,CALLE,LIBRAMIENTO DEMOCRACIA,CALLE,DOBLADO,CALLE,BERNARDO GUTIÉRREZ DE LARA,CALLE,JOSÉ GUADALUPE MOLINA,875,,,NA,0,,COLONIA,A LAS AFUERAS DE LA CIUDAD,,,,87078,28,TAMAULIPAS,41,Victoria,1,Ciudad Victoria,1946,15,,,,Fijo,23.72361662,-99.18077154,2017-11,43116
3669,6402593,SABRITAS SUCURSAL CIUDAD VICTORIA 806,COMERCIALIZADORA PEPSICO MEXICO S DE RL DE CV,431192,Comercio al por mayor de botanas y frituras,51 a 100 personas,BOULEVARD,LIBERAMIENTO NACIONALES UNIDAS,CALLE,NINGUNO,CALLE,NINGUNO,CALLE,0,0,SN,,NA,NA,,COLONIA,EL MIRADOR,,,,87018,28,TAMAULIPAS,41,Victoria,1,Ciudad Victoria,119A,32,,,WWW.PEPSICO.COM.MX,Fijo,23.75043124,-99.17304973,2010-07,43119
6702,7929027,ABARROTES LOS TRAVIESOS,,462112,Comercio al por menor en minisupers,0 a 5 personas,CALLE,LOS EBANOS,CALLE,DOCTOR EMILIO MARTINEZ MANAUTOU,CALLE,JAIME RODRIGUEZ INURRIGARRO,CALLE,SIN REFERENCIA,0,SN,,NA,0,,COLONIA,MODERNA,,,,87134,28,TAMAULIPAS,41,Victoria,1,Ciudad Victoria,1274,56,,,,Fijo,23.72683803,-99.10730616,2019-11,46211
6896,4117850,ABARROTES MARIA INES,,461110,"Comercio al por menor en tiendas de abarrotes, ultramarinos y misceláneas",0 a 5 personas,CALLE,PROLONGACION RIO BRAVO,CALLE,NINGUNO,OTRO (ESPECIFIQUE),MONTE,OTRO (ESPECIFIQUE),NINGUNO,518,,,NA,NA,,COLONIA,CAMINO REAL A TULA,,,,87070,28,TAMAULIPAS,41,Victoria,1,Ciudad Victoria,1039,47,,,,Fijo,23.71438225,-99.1693645,2010-07,46111
7868,7933576,ABARROTES SIN NOMBRE,,461110,"Comercio al por menor en tiendas de abarrotes, ultramarinos y misceláneas",0 a 5 personas,CALLE,GARDENIA,CALLE,FELIPE BERRIOZABAL,CALLE,EXPROPIACION PETROLERA,CALLE,CAMINO CALAMACO,NA,SN,,NA,NA,,FRACCIONAMIENTO,SIERRA VENTANA,,,,87030,28,TAMAULIPAS,41,Victoria,1,Ciudad Victoria,558,28,,,,Fijo,23.74261696,-99.165501,2019-11,46111
7887,8913202,ABARROTES SIN NOMBRE,,461110,"Comercio al por menor en tiendas de abarrotes, ultramarinos y misceláneas",0 a 5 personas,CALLE,PEDRO JOSE MENDEZ,CALLE,10 DE MAYO,CALLE,5 DE MAYO (FRANCISCO GONZALEZ VILLARREAL),CALLE,ANTONIO RÁBAGO,0,SN,,NA,0,,COLONIA,ALTAVISTA,,,,87078,28,TAMAULIPAS,41,Victoria,1,Ciudad Victoria,2234,9,8341989789,,,Fijo,23.72652786,-99.18701526,2019-11,46111
7910,7929252,ABARROTES SIN NOMBRE,,461110,"Comercio al por menor en tiendas de abarrotes, ultramarinos y misceláneas",0 a 5 personas,CALLE,ENRIQUE HIGUERA M.,CALLE,NINGUNO,CALLEJON,NINGUNO,CALLE,NINGUNO,NA,SN,,NA,NA,,EJIDO,LOMA ALTA,,,,87270,28,TAMAULIPAS,41,Victoria,1,Ciudad Victoria,1378,36,,,,Fijo,23.71002046,-99.14022618,2019-11,46111
8231,4111931,ABARROTES VERO,,461110,"Comercio al por menor en tiendas de abarrotes, ultramarinos y misceláneas",0 a 5 personas,AVENIDA,JOSE SULAIMAN CHAGNON,CALLE,ARTICULO 5,CALLE,REPUBLICA DE CHILE,CALLE,ARTÍCULO 17,0,SN,,NA,0,,AMPLIACION,GUADALUPE VICTORIA,,,,87024,28,TAMAULIPAS,41,Victoria,1,Ciudad Victoria,1768,36,,,,Fijo,23.76028433,-99.11675276,2010-07,46111
8574,8873124,ABARROTES YUSDY,,462112,Comercio al por menor en minisupers,0 a 5 personas,CALLE,GENERAL LAZARO CARDENAS,CALLE,20 DE NOVIEMBRE,CALLE,FERMIN LEGORRETA,CALLE,GENERAL LÁZARO CÁRDENAS,220,,,NA,0,,COLONIA,LAS PALMAS,,,,87140,28,TAMAULIPAS,41,Victoria,1,Ciudad Victoria,1096,18,,,,Fijo,23.71918858,-99.15733044,2019-11,46211
8820,6457456,BEDEGA DE HELADOS SULTANA,HELADOS SULTANA DE MONTERREY SA DE CV,461170,Comercio al por menor de paletas de hielo y helados,0 a 5 personas,CALLE,DEL SOL,,NINGUNO,,NINGUNO,,NINGUNO,0,SN,,NA,NA,,HACIENDA,COMERCIAL DOS MIL,,,,87099,28,TAMAULIPAS,41,Victoria,1,Ciudad Victoria,882,2,,,,Fijo,23.73802517,-99.13074507,2010-07,46117
9090,4110761,CARNES VILLANUEVA,,461121,Comercio al por menor de carnes rojas,0 a 5 personas,CALLE,CAMINO A LA LIBERTAD,CALLE,AQUILES SERDAN,CALLE,BELISARIO DOMINGUEZ (23),CALLE,CONRADO CASTILLO,710,,,NA,NA,,COLONIA,ASCENCION GOMEZ,,,,87040,28,TAMAULIPAS,41,Victoria,1,Ciudad Victoria,1753,37,,,,Fijo,23.74590201,-99.15720411,2010-07,46112
9114,7294442,CARNICERIA,,461121,Comercio al por menor de carnes rojas,0 a 5 personas,CALLE,COLOMBIA,CALLE,MEXICO,CALLE,URUGUAY,CALLE,PANAMÁ,NA,SN,,NA,NA,,COLONIA,SOLIDARIDAD VOLUNTAD Y TRABAJO,,,,87089,28,TAMAULIPAS,41,Victoria,1,Ciudad Victoria,1787,26,,,,Fijo,23.75245048,-99.11369594,2019-11,46112
9236,4123848,CARNICERÍA CHEPE,,461121,Comercio al por menor de carnes rojas,0 a 5 personas,CALLE,FRANCISCO HIGUERA,CALLE,GRAL. ANTONIO CANALES R.,CALLE,GENERAL JUAN MANUEL TORRES,AVENIDA,AMÉRICA ESPAÑOLA,0,SN,,NA,0,,COLONIA,AMPLIACION PEDRO SOSA,,,,87180,28,TAMAULIPAS,41,Victoria,1,Ciudad Victoria,1363,3,,,,Fijo,23.71730976,-99.13683566,2010-07,46112
9453,4123507,CARNICERÍA GABYS,,461121,Comercio al por menor de carnes rojas,0 a 5 personas,CALLE,CIPRES,CALLE,CANELO,CALLE,EUCALIPTO,CALLE,MANGO,314,,,NA,NA,,COLONIA,MANUEL A. RAVIZE,,,,87170,28,TAMAULIPAS,41,Victoria,1,Ciudad Victoria,1306,24,,,,Fijo,23.70581841,-99.16393891,2010-07,46112
9499,4100724,CARNICERÍA ITZEL,,461121,Comercio al por menor de carnes rojas,0 a 5 personas,CALLE,FRANCISCA CUMPEAN BARRON,CALLE,OCELOTE,CALLE,DOCTOR EMILIO MARTINEZ MANAUTOU,CALLE,MARÍA FRANCISCA ORTEGA PEDRAZA,NA,SN,,NA,NA,,COLONIA,CONJUNTO HAB ENFERMERAS,,,,87015,28,TAMAULIPAS,41,Victoria,1,Ciudad Victoria,1185,32,,,,Fijo,23.77588937,-99.17781494,2010-07,46112
9582,4082659,CARNICERIA LA ESPECIAL,,461121,Comercio al por menor de carnes rojas,0 a 5 personas,CALLE,ZEFERINO MORALES,CALLE,JOSE MARIA IGLESIAS,CALLE,LUCIO BLANCO,CALLE,JOSÉ SILVA SÁNCHEZ,NA,SN,,NA,NA,,COLONIA,AMERICO VILLARREAL GUERRA,,,,87070,28,TAMAULIPAS,41,Victoria,1,Ciudad Victoria,1293,3,,,,Fijo,23.71776895,-99.17809584,2014-12,46112
9622,6458621,CARNICERIA LA HUASTECA,,461121,Comercio al por menor de carnes rojas,0 a 5 personas,CALLE,MIGUEL HIDALGO Y COSTILLA,CALLE,JOSE MARIA PINO SUAREZ (18),CALLE,MIER Y TERAN (19),CALLE,JOSÉ MARÍA MORELOS Y PAVÓN,261,,,NA,NA,,COLONIA,CIUDAD VICTORIA CENTRO,,,,87000,28,TAMAULIPAS,41,Victoria,1,Ciudad Victoria,948,33,8343123339,,,Fijo,23.73227745,-99.15420192,2010-07,46112
9670,4082640,CARNICERIA LA PASADITA,,461121,Comercio al por menor de carnes rojas,0 a 5 personas,CALLE,LEOPOLDO BELLO LOPEZ,CALLE,CAMINO VIEJO,CALLE,HORTENSIA,CALLE,FORTUNATO DE LEIJA,610,,,NA,NA,,COLONIA,AMERICA DE JUAREZ,,,,87078,28,TAMAULIPAS,41,Victoria,1,Ciudad Victoria,1946,28,,,,Fijo,23.72487579,-99.17272355,2014-12,46112
9991,4116221,CARNICERIA SATELITE,,461121,Comercio al por menor de carnes rojas,0 a 5 personas,CALLE,COSMOS,CALLE,MERCURIO,CALLE,TIERRA,CALLE,ANDRÓMEDA,3902,,,NA,NA,,COLONIA,SATELITE,,,,87089,28,TAMAULIPAS,41,Victoria,1,Ciudad Victoria,1344,22,,,,Fijo,23.74781635,-99.11623122,2010-07,46112
10219,7294185,CARNIICERIA GONZALEZ,,461121,Comercio al por menor de carnes rojas,0 a 5 personas,CALLE,IGNACIO ALDAMA,CALLE,PROFESOR LAURO AGUIRRE (11),CALLE,HERMANOS VAZQUEZ GOMEZ (10),CALLE,IGNACIO ALDAMA,902,,,NA,0,,COLONIA,MORELOS,,,,87050,28,TAMAULIPAS,41,Victoria,1,Ciudad Victoria,863,6,,,,Fijo,23.73865132,-99.14557271,2019-11,46112
10246,9060681,CASILLA EL MERCURIO,,461190,Comercio al por menor de otros alimentos,0 a 5 personas,BOULEVARD,FIDEL VELAZQUEZ SANCHEZ,CALLE,PAMORANES,CALLE,RICARDO FLORES MAGON,CALLE,JANAMBRES,0,SN,,NA,0,,COLONIA,ADOLFO LOPEZ MATEOS,,,,87020,28,TAMAULIPAS,41,Victoria,1,Ciudad Victoria,076A,10,8342659260,,,Semifijo,23.74781354,-99.13775317,2019-11,46119
10815,4123315,DISTRIBUIDORA DE PAPAS,,461130,Comercio al por menor de frutas y verduras frescas,0 a 5 personas,CALLE,LEANDRO VALLE (3),CALLE,MIGUEL HIDALGO Y COSTILLA,CALLE,JOSE MARIA MORELOS Y PAVON,CALLE,CAMILO MANZO (2),NA,SN,,NA,NA,,COLONIA,ZONA CENTRO,,,,87000,28,TAMAULIPAS,41,Victoria,1,Ciudad Victoria,967,28,,,,Fijo,23.73138397,-99.13965657,2010-07,46113
10920,8878498,DULCERIA DULCELANDIA,,461160,Comercio al por menor de dulces y materias primas para repostería,0 a 5 personas,CALLE,SIERRA DE SAN CARLOS,CALLE,RIO TAMESI,BOULEVARD,LIBRAMIENTO DE TRANSITO PESADO LICENCIADO EMILIO PORTES GIL,CALLE,CERRO DEL BERNAL,NA,SN,,NA,NA,,COLONIA,ESTUDIANTIL,,,,87060,28,TAMAULIPAS,41,Victoria,1,Ciudad Victoria,2198,1,,,,Fijo,23.7139468,-99.17905151,2019-11,46116
11126,7294439,DULCERIA YUPIS,,461160,Comercio al por menor de dulces y materias primas para repostería,0 a 5 personas,AVENIDA,CARLOS ADRIAN AVILES BORTOLOUSSI,AVENIDA,16 DE SEPTIEMBRE,CALLE,18 DE JULIO,CALLE,20 DE SEPTIEMBRE,NA,SN,,NA,NA,,AMPLIACION,AMPL JOSE DE ESCANDON,,,,87087,28,TAMAULIPAS,41,Victoria,1,Ciudad Victoria,562,7,,,,Fijo,23.74213739,-99.11695111,2019-11,46116
11250,8878744,ENCREPE,,461160,Comercio al por menor de dulces y materias primas para repostería,0 a 5 personas,CALLE,DOCTOR NORBERTO TREVIÑO ZAPATA (16),CALLE,SIERRA DE CASAS,CALLE,SIERRA MADRE,CALLE,JOSÉ MARÍA PINO SUÁREZ,3060,B,,NA,NA,,FRACCIONAMIENTO,VILLARREAL,,,,87027,28,TAMAULIPAS,41,Victoria,1,Ciudad Victoria,685,3,,,,Fijo,23.76519474,-99.14805853,2019-11,46116
11252,7294196,ENFIESTARTE,,461160,Comercio al por menor de dulces y materias primas para repostería,0 a 5 personas,CALLE,TENOCHTITLAN,PRIVADA,PASEO SAN MIGUEL,PRIVADA,VIOLETA,CALLE,ROSAL,2117,,,NA,NA,,FRACCIONAMIENTO,VISTA VERDE,,,,87026,28,TAMAULIPAS,41,Victoria,1,Ciudad Victoria,1575,24,8341310714,,,Fijo,23.75338448,-99.1278745,2019-11,46116
13450,7929029,FRUTERIA,,461130,Comercio al por menor de frutas y verduras frescas,0 a 5 personas,CALLE,JAIME RODRIGUEZ INURRIGARRO,CALLE,LOS PINOS,CALLE,LAS PALMAS,CALLE,PROFESORA MARÍA DE LOS ÁNGELES GUILLEN DE HACES,3659,,,NA,0,,COLONIA,MODERNA,,,,87134,28,TAMAULIPAS,41,Victoria,1,Ciudad Victoria,1274,51,,,,Fijo,23.72712774,-99.10845886,2019-11,46113
13502,4031987,FRUTERIA CASTAÑON,,461130,Comercio al por menor de frutas y verduras frescas,0 a 5 personas,AVENIDA,20 DE NOVIEMBRE,CALLE,20 DE NOVIEMBRE,CALLE,19 DE OCTUBRE,CALLE,22 DE DICIEMBRE,175,,,NA,NA,,COLONIA,EMILIO PORTES GIL,,,,87080,28,TAMAULIPAS,41,Victoria,1,Ciudad Victoria,543,46,,N02041977@YAHOO.COM.MX,,Fijo,23.74470644,-99.1254879,2010-07,46113
13524,4116638,FRUTERIA DESECHABLES,,462112,Comercio al por menor en minisupers,0 a 5 personas,BOULEVARD,LIBRAMIENTO DE TRANSITO PESADO LICENCIADO EMILIO PORTES GIL,CALLE,MANUEL DOBLADO,CALLE,BERNARDO GUTIERREZ DE LARA,CALLE,MAGDALENO AGUILAR CASTILLO,NA,SN,,NA,NA,,COLONIA,ALTA VISTA,,,,87078,28,TAMAULIPAS,41,Victoria,1,Ciudad Victoria,2234,41,,,,Fijo,23.72426209,-99.18077034,2010-07,46211
13549,4122450,FRUTERIA EL GUERO,,461130,Comercio al por menor de frutas y verduras frescas,0 a 5 personas,AVENIDA,CRISTOBAL COLON (9),CALLE,JUAN JOSE DE LA GARZA,CALLE,MUTUALISMO,CALLE,HERMANOS VÁZQUEZ GÓMEZ,201,B,,NA,0,,COLONIA,GUADALUPE MAINERO,,,,87100,28,TAMAULIPAS,41,Victoria,1,Ciudad Victoria,1043,6,8341182491,,,Fijo,23.72671501,-99.14565393,2014-12,46113
13568,4082650,FRUTERIA EMANUEL,,461130,Comercio al por menor de frutas y verduras frescas,0 a 5 personas,CALLE,PROLONGACION DEMOCRACIA,CALLE,JOSE GUADALUPE MOLINA,BOULEVARD,LIBRAMIENTO DE TRANSITO PESADO LICENCIADO EMILIO PORTES GIL,CALLE,MANUEL DOBLADO,2140,,,NA,NA,,COLONIA,CUAUHTEMOC,,,,87078,28,TAMAULIPAS,41,Victoria,1,Ciudad Victoria,1946,15,,,,Fijo,23.72350393,-99.17990958,2014-12,46113
13598,7294510,FRUTERIA GCB,,461130,Comercio al por menor de frutas y verduras frescas,0 a 5 personas,CALLE,MEXICO,CALLE,BRASIL,CALLE,PANAMA,CALLE,REPÚBLICA DE CHILE,NA,SN,,NA,NA,,COLONIA,SOLIDARIDAD VOLUNTAD Y TRABAJO,,,,87089,28,TAMAULIPAS,41,Victoria,1,Ciudad Victoria,1787,24,,,,Fijo,23.75347911,-99.11305821,2019-11,46113
13710,7929159,FRUTERIA NAVARRO,,461130,Comercio al por menor de frutas y verduras frescas,0 a 5 personas,CALLE,LICENCIADO BENITO JUAREZ,CALLE,TULIPAN (33),CALLE,NARDO (32),CALLE,MELCHOR OCAMPO,0,SN,,NA,0,,COLONIA,MIGUEL ALEMAN,,,,87030,28,TAMAULIPAS,41,Victoria,1,Ciudad Victoria,914,38,8342478196,,,Fijo,23.73045913,-99.16886519,2019-11,46113
13743,4080151,FRUTERIA RUIZ,,461130,Comercio al por menor de frutas y verduras frescas,0 a 5 personas,AVENIDA,CARLOS ADRIAN AVILES BORTOLOUSSI,CALLE,SUPER NOVA,CALLE,ALBIREO,CALLE,NINGUNO,1408,,,NA,0,,COLONIA,SAGITARIO,,,,87087,28,TAMAULIPAS,41,Victoria,1,Ciudad Victoria,539,64,,,,Fijo,23.74341965,-99.11784803,2014-12,46113
13760,9360724,FRUTERIA SIN NOBRE,FRUTERIA SINNOMBRE ,461130,Comercio al por menor de frutas y verduras frescas,0 a 5 personas,BOULEVARD,LICENCIADO EMILIO PORTES GIL,ANDADOR,RIO GRANDE,CALLE,RIO TIGRIS,CALLE,RÍO TIGRIS,NA,SN,,NA,NA,,FRACCIONAMIENTO,PRADERAS,,,,87018,28,TAMAULIPAS,41,Victoria,1,Ciudad Victoria,1931,55,,,,Fijo,23.75091419,-99.17082183,2021-05,46113
13816,7294035,FRUTERIA SIN NOMBRE,,461130,Comercio al por menor de frutas y verduras frescas,0 a 5 personas,CALLE,MINA,AVENIDA,16 DE SEPTIEMBRE,CALLE,MAESTRA ESTEFANIA CASTAÑEDA,AVENIDA,16 DE SEPTIEMBRE,NA,SN,,NA,NA,,COLONIA,VICTORIA III,,,,87090,28,TAMAULIPAS,41,Victoria,1,Ciudad Victoria,090A,40,,,,Fijo,23.73748095,-99.12404637,2019-11,46113
13925,6277261,GRAN D CAMPESTRE,TIENDAS GRAN D SA DE CV,462111,Comercio al por menor en supermercados,101 a 250 personas,BOULEVARD,TAMAULIPAS,CALLE,RAFAEL BALANDRANO,CALLE,ARTURO OLIVARES,CALLE,LOS CHARCOS DE ABAJO,3262,,,NA,0,,FRACCIONAMIENTO,VILLARREAL,,,,87027,28,TAMAULIPAS,41,Victoria,1,Ciudad Victoria,469,5,,TIENDA05@TIENDAS-GRAND.COM.MX,WWW.TIENDASGRAND.COM.MX,Fijo,23.76366898,-99.1397905,2010-07,46211
15851,4120568,MINI SUPER MINA,,462112,Comercio al por menor en minisupers,0 a 5 personas,CALLE,FRANCISCO JAVIER MINA,CALLE,MATIAS SABAS CANALES (12),CALLE,GASPAR DE LA GARZA (13),CALLE,FELIPE BERRIOZÁBAL,0,SN,,NA,0,,COLONIA,MORELOS,,,,87050,28,TAMAULIPAS,41,Victoria,1,Ciudad Victoria,863,1,,,,Fijo,23.74005366,-99.14798196,2010-07,46211
16620,4123140,MINISUPER ECATEPEC,,462112,Comercio al por menor en minisupers,0 a 5 personas,CALLE,VICENTE GUERRERO,CALLE,JUAN C. DORIA (5),CALLE,ASCENSION GOMEZ (4),CALLE,NICOLÁS BRAVO,1313,,,NA,0,,COLONIA,ZONA CENTRO,,,,87000,28,TAMAULIPAS,41,Victoria,1,Ciudad Victoria,967,14,8342611275,,,Fijo,23.73353908,-99.14090878,2010-07,46211
21431,6403501,OXXO SUC 50HVZ 5 CEROS MAF,CADENA COMERCIAL OXXO SA DE CV,462112,Comercio al por menor en minisupers,6 a 10 personas,CALLE,GENERAL CARRERA TORRES,OTRO (ESPECIFIQUE),,OTRO (ESPECIFIQUE),,OTRO (ESPECIFIQUE),,2302,,,NA,NA,,COLONIA,OBRERA,,,,87090,28,TAMAULIPAS,41,Victoria,1,Ciudad Victoria,882,20,,ATENCIONCLIENTES@OXXO.COM,WWW.OXXO.COM,Fijo,23.73581301,-99.13286383,2010-07,46211
22053,7933664,PALETERIA COMO CAIDO DEL CIELO,,461170,Comercio al por menor de paletas de hielo y helados,0 a 5 personas,AVENIDA,ALASKA,CALLE,CHILE,CALLE,ECUADOR,CALLE,PERÚ,NA,SN,,NA,NA,,COLONIA,LA LIBERTAD,,,,87019,28,TAMAULIPAS,41,Victoria,1,Ciudad Victoria,435,14,,,,Fijo,23.77021032,-99.16680049,2019-11,46117
22175,4123662,PANADERÍA SIN NOMBRE,,461190,Comercio al por menor de otros alimentos,0 a 5 personas,CALLE,SANTA MARIA DE AGUAYO,CALLE,RIO VERDITO,AVENIDA,AVENIDA DEL ESTUDIANTE,AVENIDA,AVENIDA DEL ESTUDIANTE,NA,SN,,NA,NA,,COLONIA,LOS PINOS,,,,87140,28,TAMAULIPAS,41,Victoria,1,Ciudad Victoria,1096,9,,,,Fijo,23.72162922,-99.15255936,2010-07,46119
22347,4118830,PESCADERIA GUEMEZ,,461123,Comercio al por menor de pescados y mariscos,0 a 5 personas,CALLE,LAURO RENDON (27),CALLE,IGNACIO ZARAGOZA,CALLE,MELCHOR OCAMPO,CALLE,PROFESOR GABRIEL SALDÍVAR (28),310,,,NA,NA,,COLONIA,MIGUEL ALEMAN INFONAVIT,,,,87030,28,TAMAULIPAS,41,Victoria,1,Ciudad Victoria,929,38,8353241082,,,Fijo,23.72963724,-99.16245057,2010-07,46112
22602,9220774,POLLOS BLANUITA,,461122,Comercio al por menor de carne de aves,0 a 5 personas,AVENIDA,LAS AMERICAS,AVENIDA,LAS INDIAS,CALLE,12 DE OCTUBRE,CALLE,AMÉRICA DEL NORTE,902,,,NA,NA,,CONJUNTO HABITACIONAL,PASEO DE LAS AMERICAS,,,,87049,28,TAMAULIPAS,41,Victoria,1,Ciudad Victoria,2145,33,,,,Fijo,23.76621825,-99.15818968,2019-11,46112
22744,4080754,QUESOS CHILCHOTA VICTORIA,,461150,"Comercio al por menor de leche, otros productos lácteos y embutidos",0 a 5 personas,CALLE,DOCTOR NORBERTO TREVIÑO ZAPATA (16),CALLE,ALEJANDRO PRIETO,CALLE,VERACRUZ,CALLE,MANUEL GONZÁLEZ HIJO,1545,,,NA,NA,,COLONIA,SAN FRANCISCO,,,,87050,28,TAMAULIPAS,41,Victoria,1,Ciudad Victoria,806,7,,CHILCHOTAVICTORIA@HOTMAIL.COM,,Fijo,23.74645193,-99.14999881,2014-12,46115
22872,4123377,SALCHICHONERIA QUESOS Y COSAS,,461150,"Comercio al por menor de leche, otros productos lácteos y embutidos",0 a 5 personas,CALLE,JOSE NUÑEZ DE CACERES (6),CALLE,LICENCIADO BENITO JUAREZ,BOULEVARD,PRAXEDIS BALBOA,CALLE,JUAN C. DORIA (5),201,A,,NA,NA,,COLONIA,ZONA CENTRO,,,,87000,28,TAMAULIPAS,41,Victoria,1,Ciudad Victoria,967,33,8341854574,,,Fijo,23.72993064,-99.14233991,2010-07,46115
23049,6402644,SORIANA 75 TAMATÁN,TIENDAS SORIANA SA DE CV,462111,Comercio al por menor en supermercados,101 a 250 personas,CALLE,GRAL LUIS CABALLERO PONIENTE ENTRE RIO CORONA Y VIA F,,,,,CARRETERA,0,250,,,NA,NA,,HACIENDA,ZOZAYA,,,,87070,28,TAMAULIPAS,41,Victoria,1,Ciudad Victoria,1005,41,,,,Fijo,23.72384398,-99.16045929,2010-07,46211
23414,6404833,SUPER VOY 4,LOS SENDEROS SA DE CV,462112,Comercio al por menor en minisupers,0 a 5 personas,CALLE,PROLONGACIÓN FELIPE BERRIOZÁBAL,CALLE,ARTÍCULO 123,BOULEVARD,FIDEL VELÁZQUEZ SÁNCHEZ,CALLE,GENERAL ALBERTO CARRERA TORRES,2304,,,NA,0,,HACIENDA,COMERCIAL 2000,CENTRAL CAMIONERA,TERMINAL DE AUTOBUSES,SN,87099,28,TAMAULIPAS,41,Victoria,1,Ciudad Victoria,882,13,,,WWW.LOSSENDEROS.COM.MX,Fijo,23.73751815,-99.13151951,2014-12,46211
23813,4100313,TIENDA DE ABARROTES CRISTY,,461110,"Comercio al por menor en tiendas de abarrotes, ultramarinos y misceláneas",0 a 5 personas,CALLE,ARGENTINA,CALLE,ALASKA,CALLE,COLOMBIA,CALLE,JAMAICA,NA,SN,,NA,NA,,COLONIA,LA LIBERTAD,,,,87019,28,TAMAULIPAS,41,Victoria,1,Ciudad Victoria,435,5,,,,Fijo,23.77157222,-99.16627525,2010-07,46111
23959,4081980,TIENDA DE ABARROTES JD,,461110,"Comercio al por menor en tiendas de abarrotes, ultramarinos y misceláneas",0 a 5 personas,CALLE,JUAN DE LA BARRERA,CALLE,PLAN DE SAN LUIS,CALLE,CONSUMACION DE LA INDEPENDENCIA,CALLE,JUAN ESCUTIA,NA,SN,,NA,NA,,COLONIA,ESFUERZO POPULAR,,,,87180,28,TAMAULIPAS,41,Victoria,1,Ciudad Victoria,1310,19,,,,Fijo,23.69935158,-99.14247454,2014-12,46111
24429,4114118,TIENDA DE ABARROTES SIN NOMBRE,,461110,"Comercio al por menor en tiendas de abarrotes, ultramarinos y misceláneas",0 a 5 personas,CALLE,OLIVES,CALLE,GENERAL PASCUAL OROZCO,CALLE,J. BAUTISTA DE M.,CALLE,MALINCHEROS,383,,,NA,NA,,COLONIA,ADOLFO LOPEZ MATEOS,,,,87020,28,TAMAULIPAS,41,Victoria,1,Ciudad Victoria,825,13,,,,Fijo,23.74507399,-99.13085798,2010-07,46111
24529,4081939,TIENDA DE ABARROTES YAQUI,,461110,"Comercio al por menor en tiendas de abarrotes, ultramarinos y misceláneas",0 a 5 personas,CALLE,LUIS CERVANTES AGUILAR,CALLE,FELIPE ARREDONDO VEGA,CALLE,NINGUNO,CALLE,TAMAHOLIPA,NA,SN,,NA,NA,,EJIDO,12 DE SEPTIEMBRE,,,,87180,28,TAMAULIPAS,41,Victoria,1,Ciudad Victoria,1378,19,,,,Fijo,23.70758086,-99.14025592,2014-12,46111
25021,7928791,VENTA DE ABARROTES Y REFRESCOS,,461110,"Comercio al por menor en tiendas de abarrotes, ultramarinos y misceláneas",0 a 5 personas,CALLE,CHAPULTEPEC,CALLE,MATIAS SERVANDO CANALES,CALLE,GUADALUPE MAINERO,CALLE,GUADALUPE MAINERO,NA,SN,,NA,NA,,COLONIA,CHAPULTEPEC,,,,87130,28,TAMAULIPAS,41,Victoria,1,Ciudad Victoria,2164,49,8342186851,,,Fijo,23.71638397,-99.1224662,2019-11,46111
25033,8873336,VENTA DE ARTICULOS PARA EL HOGAR,,462112,Comercio al por menor en minisupers,0 a 5 personas,AVENIDA,LAS AMERICAS,CALLE,CUBA,CALLE,LICENCIADO ZEFERINO FAJARDO LUNA,CALLE,CUBA,NA,SN,,NA,NA,,COLONIA,LA LIBERTAD,,,,87019,28,TAMAULIPAS,41,Victoria,1,Ciudad Victoria,435,43,,,,Fijo,23.76366659,-99.16785189,2019-11,46211
25042,4101418,VENTA DE BOTANAS KARIN,,461190,Comercio al por menor de otros alimentos,6 a 10 personas,CALLE,THOMAS ALVA EDISON,CALLE,FLEMING,CALLE,LUIS PASTEUR,CALLE,LOMAS DE SANTANDER,1706,,,NA,NA,,FRACCIONAMIENTO,LOMAS DE SANTANDER,,,,87037,28,TAMAULIPAS,41,Victoria,1,Ciudad Victoria,558,72,,,,Fijo,23.73910502,-99.17226085,2010-07,46119
25059,4081203,VENTA DE CHICHARRONES,,461190,Comercio al por menor de otros alimentos,0 a 5 personas,CALLE,JOSE NUÑEZ DE CACERES (6),CALLE,MIGUEL HIDALGO Y COSTILLA,CALLE,JOSE MARIA MORELOS Y PAVON,CALLE,JOSÉ MARÍA MORELOS Y PAVÓN,NA,SN,,NA,NA,,COLONIA,ZONA CENTRO,,,,87000,28,TAMAULIPAS,41,Victoria,1,Ciudad Victoria,952,28,,,,Fijo,23.73166705,-99.14247162,2014-12,46119
25081,7933954,VENTA DE CHORIZO Y QUESO,,461150,"Comercio al por menor de leche, otros productos lácteos y embutidos",0 a 5 personas,CALLE,CANADA,CALLE,LICENCIADO ZEFERINO FAJARDO LUNA,ANDADOR,GENERAL JUAN GOJON,CALLE,LICENCIADO ZEFERINO FAJARDO LUNA,0,SN,,NA,0,,COLONIA,BUROCRATAS MUNICIPALES II,,,,87019,28,TAMAULIPAS,41,Victoria,1,Ciudad Victoria,435,58,,,,Fijo,23.76815319,-99.16806929,2019-11,46115
25303,4123209,"VENTA DE SEMILLAS Y GRANOS ALIMENTICIOS, ESPECIAS Y CHILES SECOS",,461140,"Comercio al por menor de semillas y granos alimenticios, especias y chiles secos",0 a 5 personas,CALLE,JOSE MARIA MORELOS Y PAVON,CALLE,PORFIRIO DIAZ (7),CALLE,JOSE NUÑEZ DE CACERES (6),CALLE,MIGUEL HIDALGO Y COSTILLA,0,SN,EDIFICIO SIN NOMBRE,17,0,,COLONIA,ZONA CENTRO,,,,87000,28,TAMAULIPAS,41,Victoria,1,Ciudad Victoria,952,28,,,,Fijo,23.73198039,-99.14318398,2010-07,46114
25404,4079445,YOGURLAND NIEVE DE YOGURT,,461170,Comercio al por menor de paletas de hielo y helados,0 a 5 personas,BOULEVARD,TAMAULIPAS,CALLE,NINGUNO,CALLE,ZACATECAS,BOULEVARD,TAMAULIPAS,NA,SN,,NA,NA,LOCAL 9,COLONIA,VALLE AGUAYO,,,,87020,28,TAMAULIPAS,41,Victoria,1,Ciudad Victoria,469,51,,,,Fijo,23.75602387,-99.14133418,2014-12,46117
25789,4121362,ANTOJITOS LA CHILAPEÑA,,722513,Restaurantes con servicio de preparación de antojitos,0 a 5 personas,CALLE,EMILIANO P. NAFARRETE (14),CALLE,LICENCIADO BENITO JUAREZ,CALLE,MIGUEL HIDALGO Y COSTILLA,CALLE,GASPAR DE LA GARZA (13),NA,SN,EDIFICIO SIN NOMBRE,1,NA,,COLONIA,CIUDAD VICTORIA CENTRO,,,,87000,28,TAMAULIPAS,41,Victoria,1,Ciudad Victoria,859,36,,,,Fijo,23.73144054,-99.14991532,2010-07,72251
26216,7933688,BANQUETES Y REPOSTERIA ANGELICA,,722320,Servicios de preparación de alimentos para ocasiones especiales,6 a 10 personas,CALLE,GASPAR DE LA GARZA (13),CALLE,CHIHUAHUA,CALLE,COAHUILA,CALLE,MATÍAS SABAS CANALES (12),1845,,,NA,0,,FRACCIONAMIENTO,FRACC SAN JOSE,,,,87040,28,TAMAULIPAS,41,Victoria,1,Ciudad Victoria,740,20,8341114193,BANQUETESANGELICA@HOTMAIL.COM,,Fijo,23.74897607,-99.14706631,2019-11,72232
27151,7928793,CARNITAS SORIA,,722513,Restaurantes con servicio de preparación de antojitos,0 a 5 personas,AVENIDA,AVENIDA DE LA UNIDAD,CALLE,PATRIOTISMO,CALLE,GRATITUD,CALLE,INTEGRIDAD,1426,,,NA,NA,,FRACCIONAMIENTO,INTEGRACION FAMILIAR,,,,87130,28,TAMAULIPAS,41,Victoria,1,Ciudad Victoria,2164,8,8343006807,,,Semifijo,23.71932776,-99.12034144,2019-11,72251
29530,6405738,ESTACIONAMIENTO HOTEL SANTORIN,HOTELERA CARCUR CASTAÑEDA SA DE CV,721111,Hoteles con otros servicios integrados,0 a 5 personas,AVENIDA,CRISTÓBAL COLÓN (9),AVENIDA,VICENTE GUERRERO,CALLE,MARIANO MATAMOROS,CALLE,HERMANOS VÁZQUEZ GÓMEZ (10),349,,,NA,NA,,SECTOR,ZONA CENTRO,OTRO CONGLOMERADO,BEST WESTERN SANTORIN,349,87000,28,TAMAULIPAS,41,Victoria,1,Ciudad Victoria,952,17,,RICARDOMELENDEZ@GRUPOCARCUR.COM.MX,,Fijo,23.73349272,-99.14509619,2010-07,72111
29913,4122293,GORDITAS DOÑA DIEGO,,722513,Restaurantes con servicio de preparación de antojitos,0 a 5 personas,CALLE,MARTIRES DE CHICAGO,BOULEVARD,PRAXEDIS BALBOA,CALLE,IGNACIO ZARAGOZA,CALLE,MÁRTIRES DE CHICAGO,NA,SN,,NA,NA,,COLONIA,MIGUEL HIDALGO,,,,87090,28,TAMAULIPAS,41,Victoria,1,Ciudad Victoria,971,43,,,,Semifijo,23.72829937,-99.13355204,2010-07,72251
30983,7928861,KOME HOUSE,,722516,Restaurantes de autoservicio,0 a 5 personas,CALLE,LOS OLIVOS,CALLE,OYAMELES,CALLE,BUGAMBILIAS,CALLE,FRAMBOYANES,550,,,NA,NA,,FRACCIONAMIENTO,PASEO DE LOS OLIVOS III,,,,87130,28,TAMAULIPAS,41,Victoria,1,Ciudad Victoria,1857,13,,ISRODRIGUEZ_EA@HOTMAIL.COM,,Fijo,23.71433232,-99.11316821,2019-11,72251
31073,7929490,LA COCINA DE MONY,,722518,Restaurantes que preparan otro tipo de alimentos para llevar,0 a 5 personas,CALLE,FRANCISCO JAVIER MINA,CALLE,MANUEL GONZALEZ JR.,CALLE,5 DE MAYO (16),CALLE,IGNACIO ALDAMA,220,,,NA,0,,COLONIA,SAN FRANCISCO,,,,87050,28,TAMAULIPAS,41,Victoria,1,Ciudad Victoria,793,25,8351500225,,,Fijo,23.74023194,-99.15037645,2019-11,72251
31612,8926812,MARIKEKAS,,722513,Restaurantes con servicio de preparación de antojitos,6 a 10 personas,AVENIDA,FRANCISCO I. MADERO (17),CALLE,LICENCIADO BENITO JUAREZ,CALLE,IGNACIO ZARAGOZA,CALLE,5 DE MAYO (16),NA,SN,,NA,NA,,COLONIA,BUROCRATAS ESTATALES,,,,87000,28,TAMAULIPAS,41,Victoria,1,Ciudad Victoria,1024,3,,,,Fijo,23.73001049,-99.15251088,2019-11,72251
33683,8376410,RESTAURANTE CON SERVICIO DE PREPARACION DE TACOS Y TORTAS SIN NOMBRE,RESTAURANTE CON SERVICIO DE PREPARACION DE TACOS Y TORTAS SIN NOMBRE ,722514,Restaurantes con servicio de preparación de tacos y tortas,0 a 5 personas,CALLE,BENITO CARRERA TORRES,CALLE,1 DE MAYO,CALLE,PROLONGACION ESMERALDA,CALLE,AMANECER,0,SN,,NA,0,SN,COLONIA,LA ESPERANZA,,,,87076,28,TAMAULIPAS,41,Victoria,1,Ciudad Victoria,2249,1,8341493047,,,Fijo,23.72123186,-99.18729198,2019-11,72251
36308,4123064,TAMALES DE MUNDA,,722519,Servicios de preparación de otros alimentos para consumo inmediato,0 a 5 personas,CALLE,IGNACIO ALLENDE,CALLE,PORFIRIO DIAZ (7),CALLE,JOSE NUÑEZ DE CACERES (6),CALLE,NICOLÁS BRAVO,1106,,,NA,0,,COLONIA,ZONA CENTRO,,,,87000,28,TAMAULIPAS,41,Victoria,1,Ciudad Victoria,952,12,,,,Fijo,23.73543802,-99.1429355,2010-07,72251
39232,4111093,VENTA DE COMIDAS LAS CAZUELAS DEL SABOR,,722518,Restaurantes que preparan otro tipo de alimentos para llevar,0 a 5 personas,CALLE,DOCTOR NORBERTO TREVIÑO ZAPATA (16),CALLE,VERACRUZ,CALLE,NUEVO LEON,CALLE,MANUEL GONZÁLEZ HIJO,1633,,,NA,NA,,COLONIA,SAN FRANCISCO,,,,87050,28,TAMAULIPAS,41,Victoria,1,Ciudad Victoria,736,47,,,,Fijo,23.74695135,-99.14994186,2010-07,72251
39267,4081316,VENTA DE GORDITAS,,722513,Restaurantes con servicio de preparación de antojitos,0 a 5 personas,CALLE,CAMILO MANZO (2),CALLE,MARIANO MATAMOROS,CALLE,VICENTE GUERRERO,CALLE,F. DE LA GARZA (1),331,,,NA,NA,,COLONIA,OBRERA,,,,87090,28,TAMAULIPAS,41,Victoria,1,Ciudad Victoria,971,1,8343127616,,,Fijo,23.73320501,-99.138581,2014-12,72251
