ord,id,nom_estab,raz_social,codigo_act,nombre_act,per_ocu,tipo_vial,nom_vial,tipo_v_e_1,nom_v_e_1,tipo_v_e_2,nom_v_e_2,tipo_v_e_3,nom_v_e_3,numero_ext,letra_ext,edificio,edificio_e,numero_int,letra_int,tipo_asent,nomb_asent,tipoCenCom,nom_CenCom,num_local,cod_postal,cve_ent,entidad,cve_mun,municipio,cve_loc,localidad,ageb,manzana,telefono,correoelec,www,tipoUniEco,latitud,longitud,fecha_alta,subrama
30,6973621,ALGODONES DE AZUCAR MORELIA,,311340,"Elaboración de dulces, chicles y productos de confitería que no sean de chocolate",0 a 5 personas,CALLE,LICENCIADO ALBERTO ALVARADO,CALLE,FRANCISCO J. MUGICA,CALLE,RAFAEL MARQUEZ,CALLE,NICOLÁS BRAVO,270,A,,NA,NA,,COLONIA,FELICITAS DEL RIO,,,,58040,16,MICHOACÁN DE OCAMPO       ,53,Morelia,1,Morelia,2073,27,4431349936,ALGODONESMORELIA@GMAIL.COM,,Fijo,19.69032335,-101.1991196,2019-11,31134
117,7019588,BOLIS EMPERADOR,,311520,Elaboración de helados y paletas,6 a 10 personas,CALLE,CEDRON,CALLE,CANGOME,CALLE,CACHISDA,CALLE,CHICALOTE,56,A,,NA,NA,,COLONIA,AMPLIACION LOMAS DEL PUNHUATO,,,,58256,16,MICHOACÁN DE OCAMPO       ,53,Morelia,1,Morelia,700,61,NA,,,Fijo,19.69821262,-101.1470771,2019-11,31152
368,7349645,DULCE RINCONCITO,,311812,Panificación tradicional,0 a 5 personas,CALLE,OCTAVA,CALLE,CERRITO,CALLE,TLATELOLCO,CALLE,SÉPTIMA,392,,,NA,0,,COLONIA,GUADALUPE,,,,58140,16,MICHOACÁN DE OCAMPO       ,53,Morelia,1,Morelia,838,11,4434688020,,,Fijo,19.70844594,-101.2238318,2019-11,31181
538,7244245,ELABORACION DE FLANES Y GELATINAS,,311993,Elaboración de alimentos frescos para consumo inmediato,0 a 5 personas,CALLE,CARPINTEROS DE PARACHO,CALLE,COLCHEROS DE PARANGARICUTIRO,CALLE,VIRREY ANTONIO DE BUCARELI,CALLE,COBREROS DE SANTA CLARA,430,,,NA,NA,,COLONIA,VASCO DE QUIROGA,,,,58230,16,MICHOACÁN DE OCAMPO       ,53,Morelia,1,Morelia,414,30,44359247,,,Fijo,19.70184341,-101.1755896,2019-11,31199
991,7015176,ELABORACION DE TORTILLAS A MANO,,311830,Elaboración de tortillas de maíz y molienda de nixtamal,0 a 5 personas,DIAGONAL,SAN CRISTOBAL ECATEPEC,CALLE,SAN CRISTOBAL ECATEPEC,CALLE,JOSE ANTONIO PEREZ PAVON,OTRO (ESPECIFIQUE),NINGUNO,110,,,NA,NA,,COLONIA,EL ARQUITO,,,,58341,16,MICHOACÁN DE OCAMPO       ,53,Morelia,86,Morelos,325A,2,NA,,,Fijo,19.64200005,-101.2395162,2019-11,31183
1085,2609108,ELABORACIÓN DE TORTILLAS DE COMAL SIN NOMBRE,,311830,Elaboración de tortillas de maíz y molienda de nixtamal,0 a 5 personas,CALLE,PRUDENCIANA BOCANEGRA,CALLE,LUIS PADILLA NERVO,CALLE,LUIS MORA TOVAR,CALLE,DOCTOR RODRIGO MÉNDEZ,208,,,NA,NA,,COLONIA,CONSTITUYENTES DE QUERETARO,,,,58219,16,MICHOACÁN DE OCAMPO       ,53,Morelia,1,Morelia,1145,19,NA,,,Fijo,19.71950413,-101.1648907,2014-12,31183
1560,7234657,FABRICACION DE BOTANAS,,311910,Elaboración de botanas,0 a 5 personas,CALLE,TRABAJADORES DE TELECOMUNICACIONES,CALLE,SANTIAGO DE LA HOZ,CALLE,ANSELMO L. FIGUEROA,CALLE,PRAXEDIS GUERRERO,23,,,NA,NA,,COLONIA,PRECURSORES DE LA REVOLUCION,,,,58127,16,MICHOACÁN DE OCAMPO       ,53,Morelia,1,Morelia,1183,1,4431203479,,,Fijo,19.72423763,-101.1763963,2019-11,31191
1630,8072521,GALLETERA SIN NOMBRE,,311820,Elaboración de galletas y pastas para sopa,0 a 5 personas,CALLE,NINGUNO,CALLE,NINGUNO,CIRCUITO,PERIFERICO PASEO DE LA REPUBLICA (SECTOR REPUBLICA),CALLE,NINGUNO,71,,,NA,NA,,COLONIA,FRACC VICTOR MANUEL TINOCO RUBI,,,,58146,16,MICHOACÁN DE OCAMPO       ,53,Morelia,1,Morelia,2177,37,NA,,,Fijo,19.70287443,-101.2436053,2019-11,31182
1703,2569156,INDUSTRIAL TRINIDAD,INDUSTRIAL TRINIDAD SA,311922,Elaboración de café tostado y molido,11 a 30 personas,CALLE,GARCIA PUEBLITA,AVENIDA,MORELOS NORTE,CALLE,BENITO JUAREZ,AVENIDA,HÉROES DE NOCUPÉTARO,118,,,NA,NA,,COLONIA,CENTRO,,,,58000,16,MICHOACÁN DE OCAMPO       ,53,Morelia,1,Morelia,293,31,4433126622,INDUSTRIALTRINIDAD@HOTMAIL.COM,WWW.CAFECOSTENO.COM.MX,Fijo,19.70777718,-101.1912941,2010-07,31192
1936,2692914,MOLINO DE CHILE Y SEMILLAS EL GUADALUPANO,,311214,Elaboración de harina de otros productos agrícolas,0 a 5 personas,CALLE,GENERAL JOSE MARIA ROJO,AVENIDA,QUINCEO,CALLE,CIVICA,CIRCUITO,5 DE MAYO,188,,,NA,NA,,COLONIA,JARDINES DE QUINCEO,,,,58114,16,MICHOACÁN DE OCAMPO       ,53,Morelia,1,Morelia,3103,28,NA,,,Fijo,19.72322975,-101.2057026,2010-07,31121
2576,7059867,NEVERIA SIN NOMBRE,,311520,Elaboración de helados y paletas,0 a 5 personas,CALLE,AMALTEA,CALLE,PROMETHEO,AVENIDA,AVENIDA DE LAS TORRES,CALLE,DIONE,69,,,NA,NA,,COLONIA,SATELITE,,,,58128,16,MICHOACÁN DE OCAMPO       ,53,Morelia,1,Morelia,3781,9,NA,,,Fijo,19.73345989,-101.1645472,2019-11,31152
3868,8407363,PANADERIA LA PEQUEÑITA,,311812,Panificación tradicional,0 a 5 personas,CALLE,LAGO DE CHAPALA,CALLE,RIO YAQUI,CALLE,VICENTE SANTA MARIA,CALLE,LAGO DE CUITZÉO,612,,,NA,NA,,COLONIA,VENTURA PUENTE,,,,58020,16,MICHOACÁN DE OCAMPO       ,53,Morelia,1,Morelia,486,2,4435461477,,,Fijo,19.69344407,-101.1871029,2019-11,31181
3922,2705061,PANADERÍA LOEZA,,311812,Panificación tradicional,0 a 5 personas,CALLE,GENERAL EDUARDO ALDASORO SUAREZ,CALLE,JOAQUIN DE LA CANTOLLA Y RICO,CALLE,CAPITAN JOAQUIN RIVADENEYRA VAZQUEZ,CALLE,PILOTO CONSUELO PADUA HERNÁNDEZ,590,,,NA,NA,,COLONIA,JARDINES DE GUADALUPE,,,,58140,16,MICHOACÁN DE OCAMPO       ,53,Morelia,1,Morelia,664,13,NA,,,Fijo,19.710542,-101.2243962,2010-07,31181
4234,2693818,PANADERÍA SANTA MARIA,,311812,Panificación tradicional,0 a 5 personas,CALLE,RAMON LOPEZ VELARDE NORTE,CALLE,LUIS GONZAGA URBINA,CALLE,JUAN DE DIOS PEZA (SALVADOR DIAZ MIRON),CALLE,JOSÉ JOAQUÍN PESADO (ENRIQUE GONZÁLEZ MARTÍNEZ),85,C,,NA,NA,,COLONIA,TENENCIA DE SANTA MARIA DE GUIDO,,,,58090,16,MICHOACÁN DE OCAMPO       ,53,Morelia,1,Morelia,607,11,NA,,,Fijo,19.67364464,-101.1904796,2010-07,31181
5004,9181057,PANOLI,PANOLI MORELIA SA DE CV,311812,Panificación tradicional,11 a 30 personas,CALLE,JOSE JUAN TABLADA,PRIVADA,NINGUNO,PRIVADA,PRIMERA PRIVADA DE JOSE JUAN TABLADA,CALLE,CARLOS LOPEZ,530,,,NA,2,,COLONIA,BALCONES DE SANTA MARIA,,,,58090,16,MICHOACÁN DE OCAMPO       ,53,Morelia,1,Morelia,749,34,4433198088,,,Fijo,19.67627509,-101.1883404,2019-11,31181
5150,9353533,PASTELERIA EL BOMBONCITO,PASTELERIA EL BOMBONCITO ,311812,Panificación tradicional,0 a 5 personas,CALLE,LAGUNA NEGRA,CALLE,LAGUNA DE LA JOYA,CALLE,LAGUNA DEL TORDO,CALLE,LAGUNA NEGRA,1150,,,NA,NA,,COLONIA,EL LAGO 1,,,,58115,16,MICHOACÁN DE OCAMPO       ,53,Morelia,1,Morelia,3052,7,4434316435,,,Fijo,19.72888087,-101.218697,2021-05,31181
5580,2562460,PREPARACIO Y VENTA DE CHOCALATE,,311350,Elaboración de chocolate y productos de chocolate,0 a 5 personas,CALLE,FUERTE DE COPORO,CALLE,LEONA VICARIO,CALLE,ABASOLO,CALLE,BENEDICTO LÓPEZ,159,,,NA,NA,,COLONIA,CENTRO,,,,58000,16,MICHOACÁN DE OCAMPO       ,53,Morelia,1,Morelia,382,21,4433122917,,,Fijo,19.69710246,-101.194166,2010-07,31135
5879,8966917,SALSAS CARMELITA,,311423,Conservación de guisos y otros alimentos preparados por procesos distintos a la congelación,0 a 5 personas,CALLE,MANUEL MARTINEZ SOLORZANO (DOCTOR),AVENIDA,SOLIDARIDAD,CALLE,MARTIN CASTREJON (GENERAL),CALLE,DOCTOR AMADEO BETANCOURT,130,,,NA,0,,COLONIA,GUSTAVO DIAZ ORDAZ,,,,58040,16,MICHOACÁN DE OCAMPO       ,53,Morelia,1,Morelia,2073,3,NA,,,Fijo,19.69277681,-101.2020484,2019-11,31142
5911,6863380,SIN NOMBRE,INDUSTRIALIZADORA DE CARNES MICHOACAN SA DE CV,311612,"Corte y empacado de carne de ganado, aves y otros animales comestibles",0 a 5 personas,OTRO (ESPECIFIQUE),JITOMATE,CALLE,MANDARINA,CALLE,JESÚS DÍAZ BARRIGA  PLÁTANO,CALLE,NINGUNO,582,,,NA,0,,OTRO (ESPECIFIQUE),CENTRAL DE ABASTOS,,,,58218,16,MICHOACÁN DE OCAMPO       ,53,Morelia,1,Morelia,115A,11,NA,CORTESOBRADOR@HOTMAIL.COM,,Fijo,19.7160459,-101.1712109,2019-04,31161
5944,2574246,"TEAM FOODS MÉXICO, S.A. DE C.V.",TEAM FOODS MEXICO SA DE CV,311222,Elaboración de aceites y grasas vegetales comestibles,101 a 250 personas,CALLE,NORTE-SUR,CALLE,NINGUNO,CALLE,ORIENTE 6,CALLE,NINGUNO,451,,,NA,0,,COLONIA,CIUDAD INDUSTRIAL,,,451,58200,16,MICHOACÁN DE OCAMPO       ,53,Morelia,1,Morelia,791,14,NA,ERMARTINEZ@TEAM.COM,WWW.TEAM.COM.MX,Fijo,19.72834644,-101.1458986,2012-06,31122
6517,2567307,TORTILLAS DE COMAL,,311830,Elaboración de tortillas de maíz y molienda de nixtamal,0 a 5 personas,CALLE,MIRASOL,CALLE,GIRASOL,AVENIDA,AVENIDA DEL FERROCARRIL,CALLE,MARAVILLA,689,,,NA,0,,COLONIA,AMPLIACION DEL PORVENIR,,,,58160,16,MICHOACÁN DE OCAMPO       ,53,Morelia,1,Morelia,861,8,4433168248,,,Fijo,19.71336465,-101.2066672,2010-07,31183
6596,6976696,TORTILLAS DE COMAL ARA,,311830,Elaboración de tortillas de maíz y molienda de nixtamal,0 a 5 personas,CALLE,LAGO DE CHAPALA,AVENIDA,MORELOS SUR,CALLE,GARCIA OBESO,AVENIDA,MORELOS SUR,167,,,NA,NA,,COLONIA,VENTURA PUENTE,,,,58020,16,MICHOACÁN DE OCAMPO       ,53,Morelia,1,Morelia,471,23,NA,,,Fijo,19.69371597,-101.1919797,2019-11,31183
6618,2614981,TORTILLAS DE COMAL KAREN,,311830,Elaboración de tortillas de maíz y molienda de nixtamal,0 a 5 personas,AVENIDA,PEDREGAL,CALLE,ENELDO,CALLE,SABAS ITURBIDE,CALLE,VIRREYNA,576,,,NA,NA,,COLONIA,AMPLIACION EDUARDO RUIZ,,,,58149,16,MICHOACÁN DE OCAMPO       ,53,Morelia,1,Morelia,1056,29,NA,,,Fijo,19.71453533,-101.2155662,2010-07,31183
6620,2695189,TORTILLAS DE COMAL LA CABAÑITA,,311830,Elaboración de tortillas de maíz y molienda de nixtamal,0 a 5 personas,CIRCUITO,PRESIDENTE ADOLFO LOPEZ MATEOS,CALLE,UNIDAD PROFESIONAL ZACATENCO,CALLE,26 DE MAYO DE 1910,CALLE,UNIDAD PROFESIONAL ZACATENCO,372,,,NA,NA,,COLONIA,ADOLFO LOPEZ MATEOS,,,,58180,16,MICHOACÁN DE OCAMPO       ,53,Morelia,1,Morelia,1272,33,4432760573,,,Fijo,19.6970709,-101.2277846,2010-07,31183
6652,2716732,TORTILLAS DE COMAL SIN NOMBRE,,311830,Elaboración de tortillas de maíz y molienda de nixtamal,0 a 5 personas,AVENIDA,MANUEL VILLALONGIN,CALLE,GANADERIA COAXAMALUCAN,CALZADA,LA HUERTA,CALLE,GANADERÍA COAXAMALUCAN,66,,,NA,NA,,COLONIA,FOVISSSTE LA HUERTA,,,,58048,16,MICHOACÁN DE OCAMPO       ,53,Morelia,1,Morelia,950,39,NA,,,Fijo,19.69113931,-101.2136448,2010-07,31183
6659,2568558,TORTILLAS DE COMAL SIN NOMBRE,,311830,Elaboración de tortillas de maíz y molienda de nixtamal,0 a 5 personas,AVENIDA,GENERAL SANTOS DEGOLLADO,CALLE,VICENTE RIVA PALACIO (CASUARINA),CALLE,COBALTO,CALLE,GIRASOL,1254,,,NA,NA,,CIUDAD,AMPLIACION DEL PORVENIR,,,,58168,16,MICHOACÁN DE OCAMPO       ,53,Morelia,1,Morelia,236,16,NA,,,Fijo,19.71091952,-101.2015828,2010-07,31183
6804,2556491,TORTILLAS DE COMAL SIN NOMBRE,,311830,Elaboración de tortillas de maíz y molienda de nixtamal,0 a 5 personas,CALLE,EDESIO CARRILLO PUERTO,CALLE,APOSTOL DE LA RAZA MAYA,CALLE,BENEMERITO DE YUCATAN,CALLE,MÁRTIR DE MÉRIDA,39,,,NA,NA,,COLONIA,FELIPE CARRILLO PUERTO,,,,58127,16,MICHOACÁN DE OCAMPO       ,53,Morelia,1,Morelia,1198,12,NA,,,Fijo,19.73130496,-101.1798812,2010-07,31183
9509,8300961,TORTILLERIA ORTIZ,,311830,Elaboración de tortillas de maíz y molienda de nixtamal,0 a 5 personas,CALLE,LECHUGUILLA,CALLE,DIEGO CALERO,CALLE,ANTON DE VILLAREAL,CALLE,HUINARE,152,A,,NA,NA,,COLONIA,MELCHOR OCAMPO,,,,58258,16,MICHOACÁN DE OCAMPO       ,53,Morelia,1,Morelia,1342,47,NA,,,Fijo,19.70450667,-101.1508479,2019-11,31183
10833,9079483,VENTA DE PAN,,311812,Panificación tradicional,0 a 5 personas,CALLE,MARTIN CASTREJON (GENERAL),CALLE,JOSE SILVA HERRERA,CALLE,PROFESOR JESUS ROMERO FLORES,CALLE,FRANCISCO J. MÚGICA,206,B,,NA,NA,,COLONIA,FELICITAS DEL RIO,,,,58040,16,MICHOACÁN DE OCAMPO       ,53,Morelia,1,Morelia,2073,22,NA,,,Fijo,19.69174945,-101.1978384,2019-11,31181
10938,7349098,VENTA DE QUESOS,,311513,Elaboración de derivados y fermentos lácteos,0 a 5 personas,PRIVADA,CUAUTITLAN,CALLE,DOCEAVA,PRIVADA,CUAUTITLAN,PRIVADA,ANÁHUAC,191,,,NA,0,,COLONIA,INFONAVIT JUSTO MENDOZA,,,,58146,16,MICHOACÁN DE OCAMPO       ,53,Morelia,1,Morelia,3442,23,4434342955,,,Fijo,19.70897194,-101.2286633,2019-11,31151
11759,6360484,2218 MORELIA,IMPULSORA SAHUAYO SA DE CV,431110,Comercio al por mayor de abarrotes,101 a 250 personas,CALLE,MANUEL BEZANILLA,VIADUCTO,NINGUNO,CALLE,CAYETANO PÉREZ,CALLE,TENIENTE MARIANO QUEVEDO,119,,,NA,NA,,COLONIA,MARIANO MICHELENA,,,,58195,16,MICHOACÁN DE OCAMPO       ,53,Morelia,1,Morelia,3673,17,NA,,WWW.SAHUAYO.COM.MX,Fijo,19.67634467,-101.2310071,2010-07,43111
12054,2578771,BODEGA VENTA DE PIÑA SIN NOMBRE,,431130,Comercio al por mayor de frutas y verduras frescas,0 a 5 personas,CALLE,SANDIA,CALLE,SOLEDAD GUTIERREZ DE FIGAREDO,AVENIDA,PIñA,CALLE,JOSE MOLINEROS (PAPAYA),38,,,NA,NA,,COLONIA,CENTRAL DE ABASTOS,,,BODEGA 38,58218,16,MICHOACÁN DE OCAMPO       ,53,Morelia,1,Morelia,115A,24,4431104514,,,Fijo,19.71719994,-101.1683798,2014-12,43113
12150,6785959,COMERCIALIZADORA DE EMBUTIDOS MORELIA,COMERCIALIZADORA DE EMBUTIDOS ICO SA DE CV,431170,Comercio al por mayor de embutidos,31 a 50 personas,CALLE,PAPA,CALLE,JITOMATE,AVENIDA,PIÑA,CALLE,MANDARINA,34,,,NA,NA,,COLONIA,CENTRAL DE ABASTOS,CENTRAL DE ABASTO,MERCADO DE ABASTOS,,58218,16,MICHOACÁN DE OCAMPO       ,53,Morelia,1,Morelia,115A,5,NA,,,Fijo,19.71734112,-101.1705807,2017-03,43117
12157,6360010,COMERCIALIZADORA DE PESCADOS Y MARISCOS EL CHARAL SA DE CV,COMERCIALIZADORA DE PESCADOS Y MARISCOS EL CHARAL SA DE CV,431123,Comercio al por mayor de pescados y mariscos,0 a 5 personas,CALZADA,PERIFÉRICO PASEO DE LA REPÚBLICA (SECTOR INDEPENDENCIA),CONTINUACION,REGIMIENTO DE INFANTERÍA PROVINCIAL,,AVENIDA DEL VIVERO,CALLE,SIN REFERENCIA,2130,,,NA,NA,,COLONIA,ANA MARIA GALLAGA,,,,58195,16,MICHOACÁN DE OCAMPO       ,53,Morelia,1,Morelia,186A,1,NA,,WWW.CHARAL.COM.MX,Fijo,19.67861151,-101.2344202,2010-07,43112
12293,2684411,DEPOSITO DE HUEVO SAN JOSE,,431140,Comercio al por mayor de huevo,0 a 5 personas,AVENIDA,PIÑA,CALLE,JESUS DIAZ BARRIGA,CALLE,NINGUNO,CALLE,LIMA,19,,,NA,NA,19,ZONA COMERCIAL,CENTRAL DE ABASTOS,,,,58218,16,MICHOACÁN DE OCAMPO       ,53,Morelia,1,Morelia,115A,2,NA,,,Fijo,19.717904,-101.1712771,2010-07,43114
12313,2769003,DISTRIBUIDORA DE HARINA Y MAÍZ MORELIA,,431150,"Comercio al por mayor de semillas y granos alimenticios, especias y chiles secos",0 a 5 personas,CALLE,CHILE,AVENIDA,JITOMATE,AVENIDA,PIÑA,CALLE,PAPA,40,,,NA,0,40,ZONA COMERCIAL,CENTRAL DE ABASTOS,,,,58088,16,MICHOACÁN DE OCAMPO       ,53,Morelia,1,Morelia,115A,1,NA,,,Fijo,19.7170271,-101.1698828,2010-07,43115
12342,9292443,DULCES DE LA CALLE REAL,DULCES DE LA CALLE REAL ,431180,Comercio al por mayor de dulces y materias primas para repostería,11 a 30 personas,CALZADA,LA HUERTA,CIRCUITO,HUMBOLDTZI,OTRO (ESPECIFIQUE),SIN REFERENCIA,CALLE,FACULTAD DE DERECHO Y CIENCIAS SOCIALES,NA,SN,,NA,NA,,FRACCIONAMIENTO,LOS PINOS,,,,58057,16,MICHOACÁN DE OCAMPO       ,53,Morelia,1,Morelia,965,74,NA,,,Fijo,19.68112108,-101.2172295,2020-11,43118
12492,2609572,FRUTERÍA LOS BRAVO,,431130,Comercio al por mayor de frutas y verduras frescas,0 a 5 personas,CALLE,PEPINO,AVENIDA,PIÑA,AVENIDA,JITOMATE,CALLE,MELÓN,17,,,NA,NA,BODEGA 17,MANZANA,CENTRAL DE ABASTOS,,,,58218,16,MICHOACÁN DE OCAMPO       ,53,Morelia,1,Morelia,115A,7,NA,,,Fijo,19.71655203,-101.1689892,2014-12,43113
12618,6359007,LECHE 19 DIECINUEVE HERMANOS SA DE CV,LECHE 19 DIECINUEVE HERMANOS SA DE CV,431160,Comercio al por mayor de leche y otros productos lácteos,101 a 250 personas,CALLE,ORIENTE 4,CALLE,NORTE 8,CALLE,NORTE 4,CALLE,NINGUNO,595,,,NA,NA,,COLONIA,CIUDAD INDUSTRIAL,,,,58200,16,MICHOACÁN DE OCAMPO       ,53,Morelia,1,Morelia,791,69,NA,MARIBELPADILLA@19HNOS.COM,WWW.19HERMANOS.COM,Fijo,19.73260556,-101.1348846,2011-03,43116
12775,2565679,PUESTO DE VERDURAS SIN NOMBRE,,431130,Comercio al por mayor de frutas y verduras frescas,0 a 5 personas,CALLE,AZTECAS (RAZA AZTECA),CALLE,MAYAS (RAZA MAYA),CALLE,MIEMBROS DEL EJERCITO Y LA ARMADA,AVENIDA,MORELOS NORTE,239,,MERCADO PUBLICO,5,303,,COLONIA,LOMAS DE SANTIAGUITO,MERCADO PUBLICO,MERCADO DE LA FERIA,303,58120,16,MICHOACÁN DE OCAMPO       ,53,Morelia,1,Morelia,2317,23,4431194816,,,Fijo,19.72425796,-101.1808222,2010-07,43113
12907,6973850,VENTA DE CAFE ORGANICO,,431199,Comercio al por mayor de otros alimentos,0 a 5 personas,CALLE,UNIDAD TLATELOLCO,CIRCUITO,PRESIDENTE ADOLFO LOPEZ MATEOS,CALLE,ISIDRO FABELA,CALLE,UNIDAD DE SAN JUAN DE ARAGÓN,42,,,NA,NA,,COLONIA,ADOLFO LOPEZ MATEOS,,,,58180,16,MICHOACÁN DE OCAMPO       ,53,Morelia,1,Morelia,2209,27,4432059637,,,Fijo,19.69780942,-101.2247451,2019-11,43119
16249,2616373,ABARROTES EL GALLO,,461110,"Comercio al por menor en tiendas de abarrotes, ultramarinos y misceláneas",0 a 5 personas,CALLE,FRANCISCO GODINEZ,PRIVADA,NINGUNO,CALLE,IGNACIO ORTIZ,CALLE,MANUEL ZEPEDA PERAZA,310,,,NA,NA,,COLONIA,LA QUEMADA,,,,58146,16,MICHOACÁN DE OCAMPO       ,53,Morelia,1,Morelia,2177,3,4432605852,,,Fijo,19.70342251,-101.2382293,2014-12,46111
21336,2559246,ABARROTES PAQUITA,,461110,"Comercio al por menor en tiendas de abarrotes, ultramarinos y misceláneas",0 a 5 personas,CALLE,CONSTITUYENTES DE 1917,CALLE,GENERAL GERTRUDIS G. SANCHEZ,CALLE,AMADO NERVO,CALLE,CANTEROS,610,,,NA,NA,,COLONIA,OBRERA,,,,58130,16,MICHOACÁN DE OCAMPO       ,53,Morelia,1,Morelia,306,13,NA,,,Fijo,19.7098095,-101.1845351,2010-07,46111
22855,7349615,ABARROTES SIN NOMBRE,,461110,"Comercio al por menor en tiendas de abarrotes, ultramarinos y misceláneas",0 a 5 personas,CALLE,PUERTO VALLARTA,CALLE,CORONEL JOSE MARIA MENDEZ OLIVARES,PRIVADA,NINGUNO,CALLE,PUERTO COATZACOALCOS,29,,,NA,NA,,COLONIA,JARDINES DE SINDURIO,,,,58337,16,MICHOACÁN DE OCAMPO       ,53,Morelia,1,Morelia,2656,4,NA,,,Fijo,19.70157857,-101.2580979,2019-11,46111
25204,2576680,ABARROTES VILLALVA,,461110,"Comercio al por menor en tiendas de abarrotes, ultramarinos y misceláneas",0 a 5 personas,CALLE,PATAMBARO,CALLE,ATERIO,AVENIDA,IMPERIO TARASCO,CALLE,SIGUARIO,452,,,NA,NA,,FRACCIONAMIENTO,SAN ISIDRO ITZICUARO,,,,58337,16,MICHOACÁN DE OCAMPO       ,53,Morelia,1,Morelia,2726,27,4433343077,,,Fijo,19.70282072,-101.2690128,2010-07,46111
25682,2724267,ABARROTES Y LICORES LA PASADITA,,461110,"Comercio al por menor en tiendas de abarrotes, ultramarinos y misceláneas",0 a 5 personas,AVENIDA,AVENIDA DEL VIVERO,CALLE,NINGUNO,CALLE,ARAGON,CALLE,MÁRMOL,150,,,NA,NA,,COLONIA,LA CALERA,,,,58195,16,MICHOACÁN DE OCAMPO       ,53,Morelia,1,Morelia,186A,5,4431610124,,,Fijo,19.66861931,-101.235896,2010-07,46111
27081,2769079,BODEGA DE SEMILLAS Y CEREALES GARCIA ROJO,,461140,"Comercio al por menor de semillas y granos alimenticios, especias y chiles secos",0 a 5 personas,CALLE,CHILE,AVENIDA,JITOMATE,AVENIDA,PIÑA,CALLE,PAPA,39,,,NA,NA,38 Y 39,ZONA COMERCIAL,CENTRAL DE ABASTOS,,,,58088,16,MICHOACÁN DE OCAMPO       ,53,Morelia,1,Morelia,115A,1,NA,BODEGASGARCIAROJO@HOTMAIL.COM,,Fijo,19.71705564,-101.1698881,2010-07,46114
27257,2685941,BODEGA VERDURAS MOY,,461130,Comercio al por menor de frutas y verduras frescas,6 a 10 personas,CALLE,CEBOLLA,AVENIDA,PIÑA,CALLE,SANDIA,CALLE,SANDÍA,38,,,NA,NA,BODEGA 38,MANZANA,CENTRAL DE ABASTOS,,,,58218,16,MICHOACÁN DE OCAMPO       ,53,Morelia,1,Morelia,115A,23,4433306088,,,Fijo,19.71707938,-101.1686565,2010-07,46113
28554,2737085,CARNICERIA GRECIA,,461121,Comercio al por menor de carnes rojas,0 a 5 personas,CALLE,CELESTE,CALLE,PLANETAS,CALLE,GALAXIAS,CALLE,LUNA,68,,,NA,NA,,FRACCIONAMIENTO,COSMOS,,,,58050,16,MICHOACÁN DE OCAMPO       ,53,Morelia,1,Morelia,2054,6,NA,,,Fijo,19.68604168,-101.2181166,2010-07,46112
29186,7432164,CARNICERIA LIZ,,461121,Comercio al por menor de carnes rojas,0 a 5 personas,CALLE,MIGUEL ARRIAGA,CALLE,GENERAL ALFREDO ELIZONDO,CALLE,CECILIO GARCIA,CALLE,ARTÍCULO 123,334,,,NA,0,,COLONIA,OBRERA,,,,58130,16,MICHOACÁN DE OCAMPO       ,53,Morelia,1,Morelia,026A,31,4435067017,,,Fijo,19.71237403,-101.1819108,2019-11,46112
29655,8941452,CARNICERIA PICHATARO,,461121,Comercio al por menor de carnes rojas,0 a 5 personas,CALLE,SIERRA DE PICHATARO,CALLE,CERRO AZUL,CALLE,CERRO DE VILLACHUATO,CALLE,SIERRA DE NAHUATZEN,637,,,NA,NA,,COLONIA,SANTIAGUITO,,,,58110,16,MICHOACÁN DE OCAMPO       ,53,Morelia,1,Morelia,2389,2,4433701487,,,Fijo,19.72011448,-101.1950759,2019-11,46112
30636,7234060,CERNICERIA DEL RIO,,461121,Comercio al por menor de carnes rojas,0 a 5 personas,CALLE,PASEO DEL EUCALIPTO,CALLE,PASEO DE LAS GALEANAS,AVENIDA,GUADALUPE VICTORIA,CALLE,PASEO DEL PINO,382,,,NA,NA,,COLONIA,PRADOS VERDES,,,,58110,16,MICHOACÁN DE OCAMPO       ,53,Morelia,1,Morelia,2497,47,NA,,,Fijo,19.71403119,-101.1992022,2019-11,46112
30639,2625252,CERVECERÍA SIX ATECUARO,,462112,Comercio al por menor en minisupers,0 a 5 personas,AVENIDA,ATECUARO (LA JOYA) (JOSE TRINIDAD GUIDO),CALLE,NINGUNO,CALLE,NINGUNO,AVENIDA,PASEO DE LAS LOMAS,200,,,NA,NA,,COLONIA,LA MORITA,,,,58095,16,MICHOACÁN DE OCAMPO       ,53,Morelia,1,Morelia,3813,9,4432570531,,,Fijo,19.65538435,-101.2022478,2014-12,46211
30794,8966534,COMERCIALIZADORA PARMISO,,461140,"Comercio al por menor de semillas y granos alimenticios, especias y chiles secos",0 a 5 personas,AVENIDA,MORELOS SUR,CALLE,NINGUNO,CALLE,LAGO DE CUITZEO,CALLE,NINGUNO,NA,SN,,NA,NA,,COLONIA,VENTURA PUENTE,,,,58020,16,MICHOACÁN DE OCAMPO       ,53,Morelia,1,Morelia,471,25,NA,,,Fijo,19.69304578,-101.1919616,2019-11,46114
31558,7271404,CREMERIA LA RUANA,,461150,"Comercio al por menor de leche, otros productos lácteos y embutidos",0 a 5 personas,AVENIDA,JOSE MARIA MORELOS,CALLE,COLEGIO DE SAN FRANCISCO,CALLE,MIGUEL HIDALGO,CALLE,MIGUEL HIDALGO,862,A,,NA,NA,,LOCALIDAD,JESUS DEL MONTE,,,,58350,16,MICHOACÁN DE OCAMPO       ,53,Morelia,74,Jesús del Monte (La Capilla),3194,4,4431464266,,,Fijo,19.6579736,-101.1570066,2019-11,46115
31658,6974318,CREMERIA MORELOS,,461150,"Comercio al por menor de leche, otros productos lácteos y embutidos",0 a 5 personas,ANDADOR,ANDADOR DE LA OLA,ANDADOR,PASEO DE LA BAHIA,RETORNO,MANUEL ÁVILA CAMACHO (PASEO DEL COCO),ANDADOR,ANDADOR DE LA NONA,82,,,NA,NA,,COLONIA,INDECO,,,,58197,16,MICHOACÁN DE OCAMPO       ,53,Morelia,1,Morelia,2035,4,NA,,,Fijo,19.68449582,-101.2268999,2019-11,46115
32045,2769303,DULCERIA,,461160,Comercio al por menor de dulces y materias primas para repostería,0 a 5 personas,CALLE,BELISARIO DOMINGUEZ,CALLE,JOSEFA ORTIZ DE DOMINGUEZ,CALLE,FRANCISCO I. MADERO,CALLE,GENERAL PILOTO AVIADOR,329,,,NA,NA,,COLONIA,LA ALDEA,,,,58300,16,MICHOACÁN DE OCAMPO       ,53,Morelia,1,Morelia,3940,7,NA,,,Fijo,19.74664936,-101.1328311,2010-07,46116
33085,2611676,EL POLLON,,461122,Comercio al por menor de carne de aves,0 a 5 personas,CALLE,REVOLUCION,CALLE,PLAN DE AYALA,CALLE,20 DE NOVIEMBRE,CALLE,LUIS MOYA,NA,SN,MERCADO PUBLICO,1,NA,,COLONIA,INFONAVIT PLAN DE AYALA,MERCADO PUBLICO,MERCADO REVOLUCION,259,58000,16,MICHOACÁN DE OCAMPO       ,53,Morelia,1,Morelia,310,17,4432222399,,,Fijo,19.70558987,-101.1842772,2014-12,46112
34198,9062718,FRUTAS Y VERDURAS TENORIO,,461130,Comercio al por menor de frutas y verduras frescas,0 a 5 personas,CALLE,MANDARINA,AVENIDA,JITOMATE,AVENIDA,PIÑA,CALLE,PAPA,7,,,NA,NA,7,ZONA COMERCIAL,CENTRAL DE ABASTOS,,,,58218,16,MICHOACÁN DE OCAMPO       ,53,Morelia,1,Morelia,115A,5,4432739085,,,Fijo,19.71644553,-101.1707784,2019-11,46113
34440,2559218,FRUTERIA DON TOÑO,,461130,Comercio al por menor de frutas y verduras frescas,0 a 5 personas,CALLE,CONSTITUYENTES DE 1917,CALLE,AMADO NERVO,CALLE,MARCOS V. MENDEZ,CALLE,CAMPESINO,509,,,NA,NA,,COLONIA,OBRERA,,,,58130,16,MICHOACÁN DE OCAMPO       ,53,Morelia,1,Morelia,255,3,NA,,,Fijo,19.70995122,-101.1852632,2010-07,46113
34911,6976668,FRUTERIA SIN NOMBRE,,461130,Comercio al por menor de frutas y verduras frescas,0 a 5 personas,AVENIDA,LAZARO CARDENAS,CALLE,VICENTE SANTA MARIA,CALLE,ANDRES DEL RIO,CALLE,VICENTE SANTA MARÍA,526,,MERCADO PUBLICO,9,NA,,COLONIA,CENTRO,MERCADO PUBLICO,MERCADO,30,58000,16,MICHOACÁN DE OCAMPO       ,53,Morelia,1,Morelia,433,6,4431814095,,,Fijo,19.69598431,-101.18871,2019-11,46113
35063,2565374,FRUTERIA TORRES,,461130,Comercio al por menor de frutas y verduras frescas,0 a 5 personas,CALLE,AZTECAS (RAZA AZTECA),CALLE,MAYAS (RAZA MAYA),CALLE,MIEMBROS DEL EJERCITO Y LA ARMADA,CALLE,NINGUNO,239,,MERCADO PUBLICO,5,7,,COLONIA,LOMAS DE SANTIAGUITO,MERCADO PUBLICO,MERCADO DE LA FERIA,7 8 9,58120,16,MICHOACÁN DE OCAMPO       ,53,Morelia,1,Morelia,2317,23,NA,,,Fijo,19.72426863,-101.1808205,2010-07,46113
35072,2565275,FRUTERÍA VALDANY,,461130,Comercio al por menor de frutas y verduras frescas,0 a 5 personas,CALLE,AZTECAS (RAZA AZTECA),CALLE,MAYAS (RAZA MAYA),CALLE,MIEMBROS DEL EJERCITO Y LA ARMADA,CALLE,NINGUNO,239,,,NA,590,,COLONIA,LOMAS DE SANTIAGUITO,,,,58120,16,MICHOACÁN DE OCAMPO       ,53,Morelia,1,Morelia,2317,23,NA,,,Fijo,19.72425796,-101.1808222,2010-07,46113
35147,2564219,FRUTERÍA Y VERDULERÍA EL NOPALITO,,461130,Comercio al por menor de frutas y verduras frescas,0 a 5 personas,AVENIDA,PLAN SEXENAL,CALLE,PERIODICO EL FARO,CALLE,JOSE DIAZ DE ORTEGA,AVENIDA,BARRIO ALTO,86,,,NA,NA,,COLONIA,BARRIO ALTO,,,,58118,16,MICHOACÁN DE OCAMPO       ,53,Morelia,1,Morelia,2425,37,NA,,,Fijo,19.72523302,-101.190277,2010-07,46113
35288,2737864,HELADERIA ARTESANAL ITALIANA GIOIELLO,,461170,Comercio al por menor de paletas de hielo y helados,0 a 5 personas,CIRCUITO,PERIFERICO PASEO DE LA REPUBLICA (SECTOR NUEVA ESPAÑA),AVENIDA,ENRIQUE RAMIREZ MIGUEL,CALLE,VENEZUELA,AVENIDA,BRASIL,1000,,,NA,0,,COLONIA,LAS AMERICAS,,,,58270,16,MICHOACÁN DE OCAMPO       ,53,Morelia,1,Morelia,999,5,NA,GELATIMORELIA@GMAIL.COM,,Semifijo,19.68781328,-101.1571206,2010-07,46117
35477,2678178,LA COSTA MARISQUERA VENTA DE MARISCOS,,461123,Comercio al por menor de pescados y mariscos,0 a 5 personas,AVENIDA,MORELOS SUR,CALLE,LAGO DE TEQUESQUITENGO,AVENIDA,LAZARO CARDENAS,CALLE,ANTONIO DE VIRREY DE MENDOZA,783,,,NA,NA,,COLONIA,VENTURA PUENTE,,,,58020,16,MICHOACÁN DE OCAMPO       ,53,Morelia,1,Morelia,486,48,4433133231,FRANCIS_LEYVA@HOTMAIL.COM,,Fijo,19.69583217,-101.1917892,2010-07,46112
35494,7813451,LA ESQUINA DEL PANADERO MATERIALES PARA PANADERIA,,461160,Comercio al por menor de dulces y materias primas para repostería,0 a 5 personas,CALLE,TEPEYAC,CALLE,23 DE DICIEMBRE,PRIVADA,PRIMERO DE MAYO,CALLE,PRIMERO DE MAYO,144,,,NA,NA,,COLONIA,UNION POPULAR SOLIDARIA,,,,58140,16,MICHOACÁN DE OCAMPO       ,53,Morelia,1,Morelia,842,3,NA,,,Fijo,19.7079338,-101.2192293,2019-11,46116
36000,6973715,MEGA DULCES DE LOS SANTOS,,461160,Comercio al por menor de dulces y materias primas para repostería,11 a 30 personas,CALLE,CUILAPAM,AVENIDA,FRANCISCO I. MADERO PONIENTE,CALLE,PATRIA,CIRCUITO,PRESIDENTE ADOLFO LÓPEZ MATEOS,1360,,,NA,0,,COLONIA,VICENTE GUERRERO,,,,58189,16,MICHOACÁN DE OCAMPO       ,53,Morelia,1,Morelia,857,18,NA,MORELIA.MADERO@MEGADULCES.COM.MX,MEGADULCESDELOSALTOS.COM.MX,Fijo,19.70329,-101.229,2019-11,46116
36572,2568584,MINISUPER LA BARCA,,462112,Comercio al por menor en minisupers,0 a 5 personas,CALLE,ANTIMONIO,CALLE,COBALTO,CALLE,GIRASOL,CALLE,NINGUNO,599,,,NA,NA,,COLONIA,COLONIA INDUSTRIAL,,,,58130,16,MICHOACÁN DE OCAMPO       ,53,Morelia,1,Morelia,236,18,NA,,,Fijo,19.71184,-101.2003,2014-12,46211
37184,6359262,OXXO SUC 50KUE ACUEDUCTO MLM,CADENA COMERCIAL OXXO SA DE CV,462112,Comercio al por menor en minisupers,6 a 10 personas,AVENIDA,ACUEDUCTO,CALLE,TEJEDORES DE ARANZA,CALLE,COBREROS DE SANTA CLARA,CALLE,HOSPITALES,443,,,NA,NA,,COLONIA,VASCO DE QUIROGA,,,,58230,16,MICHOACÁN DE OCAMPO       ,53,Morelia,1,Morelia,414,17,NA,ATENCIONCLIENTES@OXXO.COM,WWW.OXXO.COM,Fijo,19.69801,-101.1744,2014-12,46211
37756,6991991,PALETERIA Y NEVERIA SIN NOMBRE,,461170,Comercio al por menor de paletas de hielo y helados,0 a 5 personas,CALLE,PUDENCIANA BOCANEGRA,CALLE,FELIPE PARAMO (TENIENTE CORONEL),CALLE,DOCTOR SALVADOR FRANCO LOPEZ,CALLE,DOCTOR RUBÉN LEÑERO,90,,,NA,NA,,COLONIA,CONSTITUYENTES DE QUERETARO,,,,58219,16,MICHOACÁN DE OCAMPO       ,53,Morelia,1,Morelia,1145,4,NA,,,Fijo,19.71942,-101.1659,2019-11,46117
38115,6439171,PASTELERIA KITTY,PASTELERIA ,461190,Comercio al por menor de otros alimentos,0 a 5 personas,CALLE,MANUEL SALES CEPEDA,CALLE,TRABAJADORES DE CORREOS,CALLE,TRABAJADORES DE GOBERNACION,CALLE,DOCTOR NICOLÁS PÉREZ MORELOS,206,B,,NA,NA,,COLONIA,LOMAS DE SAN JUAN,,,,58127,16,MICHOACÁN DE OCAMPO       ,53,Morelia,1,Morelia,2317,3,4431701700,,,Fijo,19.7299,-101.1809,2010-07,46119
39153,6991982,POLLERIA SIN NOMBRE,,461122,Comercio al por menor de carne de aves,0 a 5 personas,CIRCUITO,EDUCADORES MEXICANOS,CALLE,PROFESOR JOSE TAVERA CAMPOS,CALLE,PROFESOR ALONSO SERENO S.,CALLE,LICENCIADO GUILLERMO MORALES OSORIO,62,,,NA,NA,,COLONIA,PROFESOR JESUS ROMERO FLORES,,,,58128,16,MICHOACÁN DE OCAMPO       ,53,Morelia,1,Morelia,1215,35,NA,,,Fijo,19.73456,-101.1811,2019-11,46112
39179,7349475,POLLERIA SIN NOMBRE,,461122,Comercio al por menor de carne de aves,0 a 5 personas,CALLE,AGUSTIN MELGAR,CALLE,TOMA DE CHAPULTEPEC,CALLE,HEROES DE NOCUPETARO,CALLE,VICENTE SUÁREZ,44,,,NA,NA,,AMPLIACION,NIÑOS HEROES,,,,58195,16,MICHOACÁN DE OCAMPO       ,53,Morelia,1,Morelia,3137,12,NA,,,Fijo,19.71784,-101.2411,2019-11,46112
39208,2608885,POLLERÍA SIN NOMBRE,,461122,Comercio al por menor de carne de aves,0 a 5 personas,CALLE,AZTECAS (RAZA AZTECA),CALLE,MAYAS (RAZA MAYA),CALLE,MIEMBROS DEL EJERCITO Y LA ARMADA,AVENIDA,MORELOS NORTE,239,,MERCADO PUBLICO,5,NA,,COLONIA,LOMAS DE SANTIAGUITO,MERCADO PUBLICO,MERCADO DE LA FERIA,239,58120,16,MICHOACÁN DE OCAMPO       ,53,Morelia,1,Morelia,2317,23,NA,,,Fijo,19.72427,-101.1808,2014-12,46112
39317,9026894,POLLERIA SIN NOMBRE,,461122,Comercio al por menor de carne de aves,0 a 5 personas,CALLE,OBRAJEROS DE NURIO,CALLE,COLCHEROS DE PARANGARICUTIRO,PRIVADA,NINGUNO,CALLE,OBRAJEROS DE NURIO,336,B,,NA,NA,,COLONIA,VASCO DE QUIROGA,,,,58230,16,MICHOACÁN DE OCAMPO       ,53,Morelia,1,Morelia,414,1,4432462136,,,Fijo,19.70108,-101.1729,2019-11,46112
39500,2610193,POLLOS,,461122,Comercio al por menor de carne de aves,0 a 5 personas,CALLE,DALIA,CALLE,AMAPOLA,AVENIDA,GENERAL SANTOS DEGOLLADO,CALLE,LIMÓN,816,,,NA,0,,COLONIA,AMPLIACION DEL PORVENIR,,,,58160,16,MICHOACÁN DE OCAMPO       ,53,Morelia,1,Morelia,2529,7,4431310795,,,Fijo,19.71131,-101.2046,2014-12,46112
39673,2627511,PUESTO DE FRUTA SIN NOMBRE,,461130,Comercio al por menor de frutas y verduras frescas,0 a 5 personas,CALLE,CONSTITUCION DE APATZINGAN,CALLE,LIBERALES INSURGENTES,CALLE,DECLARACION DE INDEPENDENCIA,CALLE,VIVERO INDECO,217,SN,,NA,NA,,COLONIA,LOMAS DEL VALLE,,,,58170,16,MICHOACÁN DE OCAMPO       ,53,Morelia,1,Morelia,715,29,NA,,,Fijo,19.6846,-101.232,2014-12,46113
39793,2627454,PUESTO DE VENTA DE DULCES Y REFRESCOS,,461160,Comercio al por menor de dulces y materias primas para repostería,0 a 5 personas,PRIVADA,PLAYA AZUL,CALLE,MANUEL DE LA BARCENA,CALLE,PLAYA AZUL,AVENIDA,AVENIDA DEL VIVERO,80,,,NA,NA,,COLONIA,VIVERO INDECO,,,,58196,16,MICHOACÁN DE OCAMPO       ,53,Morelia,1,Morelia,2035,6,NA,,,Semifijo,19.68056,-101.2285,2014-12,46116
40677,6358052,T111 MP ANAHUAC,ABARROTERA DEL DUERO SA DE CV,462112,Comercio al por menor en minisupers,6 a 10 personas,AVENIDA,ANÁHUAC,CALLE,GENERAL ALBERTO BRANIFF,CALLE,SEGUNDA,CALLE,CUAUTITLÁN,725,,,NA,NA,,COLONIA,GUADALUPE,,,,58140,16,MICHOACÁN DE OCAMPO       ,53,Morelia,1,Morelia,842,32,NA,AJSANCHEZ@MERZA.COM,WWW.GRUPOMERZA.COM,Fijo,19.71047,-101.2186,2010-07,46211
44511,2700730,TIENDA DE ABARROTES EL DORADO,,461110,"Comercio al por menor en tiendas de abarrotes, ultramarinos y misceláneas",0 a 5 personas,AVENIDA,JUNTA DE JAUJILLA,PRIVADA,ANTONIO VALLEJO,CALLE,LOMA DEL REY,AVENIDA,VALERIO TRUJANO,637,,,NA,NA,,COLONIA,JAUJILLA,,,,58179,16,MICHOACÁN DE OCAMPO       ,53,Morelia,1,Morelia,1179,17,NA,,,Fijo,19.69128,-101.2324,2010-07,46111
45083,2569094,TIENDA DE ABARROTES GEMINIS,,461110,"Comercio al por menor en tiendas de abarrotes, ultramarinos y misceláneas",0 a 5 personas,CALLE,URANIO,CALLE,JUAN ÁLVAREZ,CALLE,VALENTIN GOMEZ FARIAS,CALLE,ZAFIRO,388,,,NA,NA,,COLONIA,INDUSTRIAL,,,,58130,16,MICHOACÁN DE OCAMPO       ,53,Morelia,1,Morelia,240,17,NA,,,Fijo,19.70907,-101.1951,2010-07,46111
47080,2751968,TIENDA DE ABARROTES NATHARY,,461110,"Comercio al por menor en tiendas de abarrotes, ultramarinos y misceláneas",0 a 5 personas,CALLE,ARTILLERO MANUEL GAMBOA,CALLE,DOCTOR LUIS MARTINEZ DEL CASTRO,CALLE,DOCTOR CAYETANO ANDRADE,CALLE,OCOLUSEN,13,,,NA,NA,,COLONIA,POBLADO OCOLUSEN,,,,58270,16,MICHOACÁN DE OCAMPO       ,53,Morelia,1,Morelia,999,25,NA,,,Fijo,19.69464,-101.155,2010-07,46111
50611,2768626,TIENDA DE ABARROTES SIN NOMBRE,,461110,"Comercio al por menor en tiendas de abarrotes, ultramarinos y misceláneas",0 a 5 personas,CALLE,JOSEFA ORTIZ DE DOMINGUEZ,CALLE,JUANA PAVON,CALLE,LEONA VICARIO,CALLE,FRANCISCO I. MADERO,0,SN,,NA,0,,COLONIA,LA ALDEA,,,,58300,16,MICHOACÁN DE OCAMPO       ,53,Morelia,1,Morelia,3936,4,NA,,,Fijo,19.7476,-101.1337,2010-07,46111
54463,2715616,TIENDA DE ABARROTES TENDEJÓN EL ATORON,,461110,"Comercio al por menor en tiendas de abarrotes, ultramarinos y misceláneas",0 a 5 personas,AVENIDA,FRANCISCO I. MADERO PONIENTE,CALLE,MANUELA HERRERA,AVENIDA,AVENIDA DEL FERROCARRIL,CALLE,RITA PÉREZ DE MORENO,1897,,,NA,NA,,COLONIA,GERTRUDIS BOCANEGRA,,,,58150,16,MICHOACÁN DE OCAMPO       ,53,Morelia,1,Morelia,876,38,NA,,,Fijo,19.70216,-101.2128,2010-07,46111
55167,2737145,TIENDA DE AUTO SERVICIO FREEY WAY,OPERADORA MEXICANA DE AUTOTIENDAS SA DE CV,462112,Comercio al por menor en minisupers,0 a 5 personas,CALLE,PERIFERICO PASEO DE LA REPUBLICA (SECTOR INDEPENDENCIA),CALLE,PRIMERA DE PERIODISTA BUSTAMANTE,AVENIDA,ENCUENTRO DE MARAVATIO,CALLE,EL PERIODISTA BUSTAMANTE,4110,,,NA,NA,,FRACCIONAMIENTO,ANA MARIA GALLAGA (RIVIERA NORTE),,,,58086,16,MICHOACÁN DE OCAMPO       ,53,Morelia,1,Morelia,2069,46,NA,,,Fijo,19.67684,-101.223,2010-07,46211
56295,8300211,VENBTA DE VERDURA,,461130,Comercio al por menor de frutas y verduras frescas,0 a 5 personas,CALLE,ZACAPU,AVENIDA,JOSE MARIA LAFRAGUA,CALLE,NINGUNO,CALLE,MANUEL DOBLADO,NA,SN,MERCADO PUBLICO,1,NA,,COLONIA,SOLIDARIDAD,MERCADO PUBLICO,MERCADO SOLIDARIDAD,SN,58117,16,MICHOACÁN DE OCAMPO       ,53,Morelia,1,Morelia,3067,41,4431465183,,,Fijo,19.72834,-101.2085,2019-11,46113
57147,7431952,VENTA DE DULCES Y CHURROS SIN NOMBRE,,461190,Comercio al por menor de otros alimentos,0 a 5 personas,CALLE,MARCOS MORIANA Y ZAFRILLA,CALLE,FILIPINAS,CALLE,FRAY PEDRO DE CORDOBA (VALERIO DE LA CRUZ),CALLE,PABLO SALCEDA (PEDRO SALCEDO),713,,,NA,NA,,COLONIA,UNION EJIDAL ISAAC ARRIAGA,,,,58210,16,MICHOACÁN DE OCAMPO       ,53,Morelia,1,Morelia,1785,30,4432645776,,,Fijo,19.71119,-101.154,2019-11,46119
57202,6974210,VENTA DE DULCES Y YOGURT SIN NOMBRE,,461160,Comercio al por menor de dulces y materias primas para repostería,0 a 5 personas,CALZADA,ARNULFO AVILA (DEL PANTEON),CALLE,JUSTICIA,CALLE,UNION,CALLE,INDEPENDENCIA,415,,,NA,NA,,COLONIA,MORELOS,,,,58030,16,MICHOACÁN DE OCAMPO       ,53,Morelia,1,Morelia,363,7,NA,,,Fijo,19.69958,-101.2078,2019-11,46116
57270,7233919,VENTA DE FRITURAS SIN NOMBRE,,461190,Comercio al por menor de otros alimentos,0 a 5 personas,CALLE,GIGANTE,CALLE,MANUEL FERNANDEZ ROJO,CALLE,ÁLAMO,CALLE,ÁLAMO,44,,,NA,NA,,COLONIA,TORREON NUEVO,,,,58116,16,MICHOACÁN DE OCAMPO       ,53,Morelia,1,Morelia,3476,41,NA,,,Fijo,19.74947,-101.2068,2019-11,46119
57589,2555727,VENTA DE FRUTAS Y VERDURAS SIN NOMBRE,,461130,Comercio al por menor de frutas y verduras frescas,0 a 5 personas,CALLE,OBRAJEROS DE NURIO,CALLE,MADRIGAL DE LAS ALTAS TORRES,PRIVADA,NINGUNO,CALLE,TEJEDORES DE ARANZA,NA,SN,MERCADO PUBLICO,1,51,,COLONIA,VASCO DE QUIROGA,MERCADO PUBLICO,MERCADO VASCO DE QUIROGA,51,58230,16,MICHOACÁN DE OCAMPO       ,53,Morelia,1,Morelia,414,6,NA,,,Fijo,19.70056,-101.1731,2010-07,46113
57919,2562920,VENTA DE MARISCOS POLAR,,461123,Comercio al por menor de pescados y mariscos,0 a 5 personas,AVENIDA,MICHOACAN,CALLE,JAZMIN,CALLE,DALIA,CALLE,FRAMBOYÁN,504,B,,NA,NA,,COLONIA,EL PORVENIR,,,,58160,16,MICHOACÁN DE OCAMPO       ,53,Morelia,1,Morelia,880,34,NA,AGPOLAR_8@HOTMAIL.COM,,Fijo,19.70769,-101.2047,2010-07,46112
58698,7244555,VENTA DE POLLO FRESCO SIN NOMBRE,,461122,Comercio al por menor de carne de aves,0 a 5 personas,RETORNO,EL AGUAJE,CALLE,NINGUNO,AVENIDA,LAS GARZAS,CALLE,NINGUNO,255,,,NA,NA,,FRACCIONAMIENTO,ARCOS SAN ANTONIO,,,,58341,16,MICHOACÁN DE OCAMPO       ,53,Morelia,438,San Antonio,5059,18,NA,,,Fijo,19.66574,-101.2747,2019-11,46112
59409,8300213,VENTA DE VERDURA,,461130,Comercio al por menor de frutas y verduras frescas,0 a 5 personas,CALLE,ZACAPU,AVENIDA,JOSE MARIA LAFRAGUA,CALLE,NINGUNO,CALLE,MANUEL DOBLADO,NA,SN,MERCADO PUBLICO,1,NA,,COLONIA,SOLIDARIDAD,MERCADO PUBLICO,MERCADO SOLIDARIDAD,SN,58117,16,MICHOACÁN DE OCAMPO       ,53,Morelia,1,Morelia,3067,41,NA,,,Fijo,19.72834,-101.2085,2019-11,46113
60436,6158419,"AUTO LINEAS CORONA MICHOACANA, S.A. DE C.V.",AUTO LINEAS CORONA MICHOACANA SA DE CV,484121,Autotransporte foráneo de productos agrícolas sin refrigeración,6 a 10 personas,CALLE,FRAY BERNARDINO DE SAHAGUN,CALLE,FRANCISCO MATOS CORONADO,CALLE,JOSÉ ANTONIO PÉREZ CALAMA,CALLE,FRAY BERNARDO DE BALBUENA,438,,,NA,NA,,COLONIA,LAZARO CARDENAS,,,,58229,16,MICHOACÁN DE OCAMPO       ,53,Morelia,1,Morelia,1319,18,NA,AUTOLINEAS_CORONA92@HOTMAIL.COM,,Fijo,19.70897,-101.1633,2010-07,48412
60740,2737195,AMBRIZ TAQUERIA,,722514,Restaurantes con servicio de preparación de tacos y tortas,0 a 5 personas,CALLE,ZARZAMORA,CIRCUITO,PERIFERICO PASEO DE LA REPUBLICA (SECTOR INDEPENDENCIA),CALLE,ALMENDRA,CIRCUITO,PERIFÉRICO PASEO DE LA REPÚBLICA (SECTOR INDEPENDENCIA),65,A,,NA,NA,,FRACCIONAMIENTO,LOMAS DE LA HUERTA,,,,58050,16,MICHOACÁN DE OCAMPO       ,53,Morelia,1,Morelia,2586,28,4434107991,,,Fijo,19.67256,-101.2101,2010-07,72251
62505,9298449,CAPITAL HUMANO CARBAJAL,CAPTAL HUMANO CARBAJAL S DE RL DE CV,722310,Servicios de comedor para empresas e instituciones,0 a 5 personas,CALLE,Sargento Manuel de la Rosa,CALLE,Artilleros de 1847,CALLE,Batalla de Casa Mata,CALLE,Sargento Manuel de la Rosa,1103,,EDIFICIO SIN NOMBRE,1,0,,COLONIA,CHAPULTEPEC SUR,,,,58260,16,MICHOACÁN DE OCAMPO       ,53,Morelia,1,Morelia,503,32,NA,,,Fijo,19.69219,-101.1758,2020-11,72231
62944,7349818,CARNITAS SIN NOMBRE,,722513,Restaurantes con servicio de preparación de antojitos,0 a 5 personas,CALLE,MARIA MANUELA MEDINA,CALLE,FILOMENA DEL VALLE,CALLE,MARGARITA MAGON DE FLORES,CALLE,JUANA PAVÓN,337,,,NA,NA,,COLONIA,MARGARITA MAZA DE JUAREZ,,,,58000,16,MICHOACÁN DE OCAMPO       ,53,Morelia,1,Morelia,1304,24,NA,,,Fijo,19.69359,-101.2537,2019-11,72251
62998,2627921,CARNITAS Y BARBACOA SIN NOMBRE,,722514,Restaurantes con servicio de preparación de tacos y tortas,0 a 5 personas,AVENIDA,SAN JUANITO ITZICUARO,CALLE,JOSE VICENTE HURTADO,CALLE,MARIANO CARO (MARIANO ARO),CALLE,JOSÉ VICENTE HURTADO,2510,,,NA,NA,,COLONIA,ARBOLEDAS DE VALLADOLID,,,,58337,16,MICHOACÁN DE OCAMPO       ,53,Morelia,1,Morelia,1304,62,NA,,,Fijo,19.693,-101.2505,2014-12,72251
63563,6994680,CENADURIA,,722513,Restaurantes con servicio de preparación de antojitos,0 a 5 personas,CALLE,CELULOSA,CALLE,GASPAR DE VILLADIEGO,ANDADOR,LA ESPERANZA,CALLE,PAPEL,431,,,NA,NA,,COLONIA,INFONAVIT CEPAMISA,,,,58199,16,MICHOACÁN DE OCAMPO       ,53,Morelia,1,Morelia,359,24,NA,,,Fijo,19.69719,-101.2165,2019-11,72251
67147,2615460,COCINA ECONÓMICA EL BUEN ZAZON,,722518,Restaurantes que preparan otro tipo de alimentos para llevar,0 a 5 personas,CALLE,MINTZITA,AVENIDA,FRANCISCO I. MADERO PONIENTE,CALLE,RITA PEREZ DE MORENO,CALLE,JOSEFA ORTIZ DE DOMÍNGUEZ,38,A,,NA,NA,,COLONIA,GERTRUDIS BOCANEGRA,,,,58150,16,MICHOACÁN DE OCAMPO       ,53,Morelia,1,Morelia,876,33,NA,,,Fijo,19.70258,-101.2072,2014-12,72251
69147,7348565,CUCINA ITALIANA LUCA,,722517,"Restaurantes con servicio de preparación de pizzas, hamburguesas, hot dogs y pollos rostizados para llevar",0 a 5 personas,CALLE,RAMON MANTEROLA,CALLE,RITA CETINA GUTIERREZ,CALLE,JESUS URUETA,CALLE,NINGUNO,NA,SN,,NA,NA,,RESIDENCIAL,TORREON NUEVO,,,,58116,16,MICHOACÁN DE OCAMPO       ,53,Morelia,1,Morelia,3315,23,4431892898,,,Fijo,19.73398,-101.1982,2019-11,72251
70590,2564676,EVENTOS NUTRI RICO,,722320,Servicios de preparación de alimentos para ocasiones especiales,0 a 5 personas,CALLE,ALLENDE,CALLE,NARCISO MENDOZA,CALLE,MICHELENA (MARIANO),CALLE,LA CORREGIDORA,1235,A,,NA,0,,COLONIA,CENTRO,,,,58000,16,MICHOACÁN DE OCAMPO       ,53,Morelia,1,Morelia,378,26,4433168050,EVENTOSGASTRONUTRIRICO@HOTMAIL.COM,WWW.BANQUETESNTRIRICO.COM,Fijo,19.70222,-101.2032,2010-07,72232
71980,6358716,HOTEL PORTICO,HOTEL PORTICO SA DE CV,721111,Hoteles con otros servicios integrados,11 a 30 personas,OTRO (ESPECIFIQUE),AQUILES SERDAN,CALLE,REVOLUCIÓN,CALLE,AMADO NERVO,AVENIDA,FRANCISCO I. MADERO ORIENTE,744,,,NA,0,,COLONIA,CENTRO,,,,58000,16,MICHOACÁN DE OCAMPO       ,53,Morelia,1,Morelia,310,12,NA,RESERVACIONES@HOTEL-PORTICO.COM.MX,WWW.HOTEL-PORTICO.COM.MX,Fijo,19.70374,-101.1844,2010-07,72111
75830,9172693,MENUDERIA ROSITA,,722513,Restaurantes con servicio de preparación de antojitos,0 a 5 personas,CALLE,LICENCIADO JOSE CISNEROS,AVENIDA,MARTIRES DE LA PLAZA,CALLE,AGUSTIN CASTAÑEDA,CALLE,FRANCISCO GODINEZ,40,A,,NA,NA,,COLONIA,FIDEL VELQAZQUEZ,,,,58146,16,MICHOACÁN DE OCAMPO       ,53,Morelia,1,Morelia,2177,14,NA,,,Fijo,19.70467,-101.2355,2019-11,72251
78030,2730232,PUESTO DE COMIDA,,722513,Restaurantes con servicio de preparación de antojitos,0 a 5 personas,CALLE,NORTE 6,CALLE,ORIENTE 4,CALLE,NORTE 4,CALLE,NORTE 4,NA,SN,,NA,NA,,CIUDAD INDUSTRIAL,CIUDAD INDUSTRIAL,,,,58220,16,MICHOACÁN DE OCAMPO       ,53,Morelia,1,Morelia,791,24,4431215383,,,Semifijo,19.73136,-101.1364,2010-07,72251
82410,8941729,TAMALES Y CORUNDAS,TAMALES Y CORUNDAS ,722511,Restaurantes con servicio de preparación de alimentos a la carta o de comida corrida,0 a 5 personas,CALLE,TEJEDORES DE ARANZA,PRIVADA,NINGUNO,CALLE,MADRIGAL DE LAS ALTAS TORRES,CALLE,COBREROS DE SANTA CLARA,329,,,NA,NA,,COLONIA,VASCO DE QUIROGA,,,,58230,16,MICHOACÁN DE OCAMPO       ,53,Morelia,1,Morelia,414,19,4434649264,,,Fijo,19.701,-101.174,2019-11,72251
87498,2562450,VENTA DE CORUNDAS,,722513,Restaurantes con servicio de preparación de antojitos,0 a 5 personas,CALLE,BENEDICTO LOPEZ,CALLE,ABASOLO,CALLE,LEONA VICARIO,CALLE,FUERTE DE CÓPORO,39,,,NA,NA,,COLONIA,VENTURA PUENTE,,,,58000,16,MICHOACÁN DE OCAMPO       ,53,Morelia,1,Morelia,382,21,NA,,,Fijo,19.69621,-101.194,2010-07,72251
