ord,id,nom_estab,raz_social,codigo_act,nombre_act,per_ocu,tipo_vial,nom_vial,tipo_v_e_1,nom_v_e_1,tipo_v_e_2,nom_v_e_2,tipo_v_e_3,nom_v_e_3,numero_ext,letra_ext,edificio,edificio_e,numero_int,letra_int,tipo_asent,nomb_asent,tipoCenCom,nom_CenCom,num_local,cod_postal,cve_ent,entidad,cve_mun,municipio,cve_loc,localidad,ageb,manzana,telefono,correoelec,www,tipoUniEco,latitud,longitud,fecha_alta,subrama
43,6742919,AGROINDUSTRIAS UNIDAS DE CACAO AMCO,AGROINDUSTRIAS UNIDAS DE CACAO SA DE CV,311350,Elaboración de chocolate y productos de chocolate,101 a 250 personas,AVENIDA,ARRAYANES,AVENIDA,LAS TORRES,CALLE,TAMARINDOS,CALLE,COCOTEROS,NA,SN,,NA,NA,,CIUDAD INDUSTRIAL,INDUSTRIAL BRUNO PAGLIAI,,,MANZANA XVA L12 Y L1,91697,30,VERACRUZ DE IGNACIO DE LA LLAVE,193,Veracruz,87,Valente Díaz,824,28,,,,Fijo,19.16654016,-96.23405928,2016-10,31135
1367,4476209,ELABORACION DE TORTILLAS DE MANO SIN NOMBRE,,311830,Elaboración de tortillas de maíz y molienda de nixtamal,0 a 5 personas,CALLE,REVOLUCION,CALLE,MANUEL D. BOZA,CALLE,MANUEL R. GUTIERREZ,CALLE,REVOLUCIÓN,2228,,MERCADO PUBLICO,1,NA,,COLONIA,AGUACATAL,MERCADO PUBLICO,ADOLFO RUIZ CORTINES LA ROTONDA,89,91030,30,VERACRUZ DE IGNACIO DE LA LLAVE,87,Xalapa,1,Xalapa-Enríquez,111,21,,,,Fijo,19.53996766,-96.92273437,2010-07,31183
1515,7821541,ELABORACION Y VENTA DE MOLE,,311423,Conservación de guisos y otros alimentos preparados por procesos distintos a la congelación,0 a 5 personas,CALLE,RIO CONSULADO,CALLE,RIO SOTO LA MARINA,CALLE,RIO NILO,AVENIDA,CAMINO ANTIGUO A NAOLINCO,NA,SN,,NA,NA,,COLONIA,CAROLINO ANAYA,,,,91158,30,VERACRUZ DE IGNACIO DE LA LLAVE,87,Xalapa,1,Xalapa-Enríquez,1266,11,,,,Fijo,19.56093915,-96.90543569,2019-11,31142
1947,6786049,ICEE DE MEXICO SA DE CV,ICEE DE MEXICO SA DE CV,311930,"Elaboración de concentrados, polvos, jarabes y esencias de sabor para bebidas",0 a 5 personas,CALLE,FRANCISCO MARQUEZ,CALLE,LÁZARO CÁRDENAS,CALLE,MANUEL M. CONTRERAS,CALLE,FÉLIX LICONA,1,,,NA,NA,,COLONIA,REVOLUCION,,,,91100,30,VERACRUZ DE IGNACIO DE LA LLAVE,87,Xalapa,1,Xalapa-Enríquez,22,27,,,,Fijo,19.56037392,-96.92142629,2017-03,31193
1953,6412610,INDUSTRIAL MOLINERA MONTSERRAT,BUNGE COMERCIAL SA DE CV,311212,Elaboración de harina de trigo,51 a 100 personas,CALLE,MARIANO ARISTA,AVENIDA,JIMÉNEZ,AVENIDA,NEZAHUALCÓYOTL,CALLE,AQUILES SERDÁN,1625,,,NA,NA,,COLONIA,CENTRO,,,,91700,30,VERACRUZ DE IGNACIO DE LA LLAVE,193,Veracruz,1,Veracruz,190,14,,JOSE.LARA@BUNGE.COM,WWW.BUNGE.COM.MX,Fijo,19.19361041,-96.14425825,2010-07,31121
1962,6878362,INDUSTRIAS LA REAL MICHOACANA,INDUSTRIAS LA REAL MICHOACANA SA DE CV,311520,Elaboración de helados y paletas,0 a 5 personas,CALLE,BAHÍA DE BRÍSTOL,CALLE,RENATO REYES SENTIES,CALLE,INGENIERO VICENTE CAMPOREDONDO,CALLE,PROFESOR JULIO REBOLLEDO,846,,,NA,0,,COLONIA,LAS HORTALIZAS,,,,91808,30,VERACRUZ DE IGNACIO DE LA LLAVE,193,Veracruz,1,Veracruz,1771,17,,CONTABILIDAD@LAREALMICHOACANA.COM.MX,,Fijo,19.20975474,-96.19163878,2019-04,31152
1999,9267649,KAFE LEMONT,,311922,Elaboración de café tostado y molido,0 a 5 personas,AVENIDA,MIGUEL ANGEL DE QUEVEDO,AVENIDA,CUAUHTEMOC NORTE,AVENIDA,CONSTITUYENTES NORTE,CALLE,ARIZMENDI,2382,,,NA,NA,,COLONIA,FORMANDO HOGAR,,,,91897,30,VERACRUZ DE IGNACIO DE LA LLAVE,193,Veracruz,1,Veracruz,114,25,,,,Fijo,19.20391179,-96.15980021,2020-11,31192
4234,7841819,MOLINO PARA NIXTAMAL LUPITA,,311830,Elaboración de tortillas de maíz y molienda de nixtamal,0 a 5 personas,AVENIDA,FRANCISCO I. MADERO,CALLE,LAS PALMAS,CALLE,VICENTE GUERRERO,CALLE,LAS PALMAS,0,SN,,NA,0,,COLONIA,COLONIA,,,,91153,30,VERACRUZ DE IGNACIO DE LA LLAVE,87,Xalapa,1,Xalapa-Enríquez,1482,41,,,,Fijo,19.56273152,-96.9012432,2019-11,31183
4707,4312981,OFICINAS DEL INGENIO LA MARGARITA,INGENIO LA MARGARITA SA DE CV,311311,Elaboración de azúcar de caña,0 a 5 personas,CALLE,GENERAL MIGUEL NEGRETE,CALLE,HORACIO DÍAZ CORREA,CALLE,SANTOS PÉREZ ABASCAL,PRIVADA,MANUEL CONTRERAS,540,,,NA,NA,,COLONIA,IGNACIO ZARAGOZA,,,,91910,30,VERACRUZ DE IGNACIO DE LA LLAVE,193,Veracruz,1,Veracruz,042A,12,,FISCAL@LAMARGARITA.COM.MX,WWW.ILMSA.COM.MX,Fijo,19.17756993,-96.12868461,2014-12,31131
5342,7822006,PANADERIA DAI,,311812,Panificación tradicional,0 a 5 personas,CALLE,LOMA BONITA,CALLE,CALLE DEL ROSAL,CALLE,PEROTE,CALLE,PEROTE,0,SN,,NA,0,,COLONIA,VERACRUZ,,,,91018,30,VERACRUZ DE IGNACIO DE LA LLAVE,87,Xalapa,1,Xalapa-Enríquez,906,16,,,,Fijo,19.56104954,-96.94230046,2019-11,31181
5406,8492799,PANADERIA DELICIAS,,311812,Panificación tradicional,0 a 5 personas,AVENIDA,MEXICO,PRIVADA,PRIMERA MEXICO,CALLE,DIVISION DEL NORTE,PRIVADA,PRIMERA MÉXICO,406,,,NA,0,,COLONIA,REVOLUCION,,,,91119,30,VERACRUZ DE IGNACIO DE LA LLAVE,87,Xalapa,1,Xalapa-Enríquez,1181,7,,,,Fijo,19.56917336,-96.92593939,2019-11,31181
5878,7822197,PANADERIA ILUSION,,311812,Panificación tradicional,0 a 5 personas,CALLE,JORGE SERDAN,CALLE,GONZALO VAZQUEZ VELA,CALLE,VALENTIN GOMEZ FARIAS,CALLE,HERIBERTO JARA,16,,,NA,NA,,COLONIA,EMPLEADOS MUNICIPALES,,,,91010,30,VERACRUZ DE IGNACIO DE LA LLAVE,87,Xalapa,1,Xalapa-Enríquez,18,43,,,,Fijo,19.54867475,-96.93836887,2019-11,31181
6452,4467677,PANADERÍA LILIA,,311812,Panificación tradicional,0 a 5 personas,CALLE,CAMINO SUMIDERO,CALLE,RIO NILO,CALLE,APALACHES,CALLE,ANDES,64,,,NA,0,,COLONIA,LOMAS DE CASA BLANCA,,,,91157,30,VERACRUZ DE IGNACIO DE LA LLAVE,87,Xalapa,1,Xalapa-Enríquez,573,35,,,,Fijo,19.55024938,-96.89713064,2010-07,31181
6922,7855244,PANADERIA ROSMOR,,311812,Panificación tradicional,0 a 5 personas,CALLE,JUAN LOPEZ DOMINGUEZ,CALZADA,CALZADA DEL TEJAR,CALLE,JOSE DE ARRILLAGA,CALLE,PRIMAVERA,0,SN,,NA,0,,COLONIA,LOMAS DEL TEJAR,,,,91060,30,VERACRUZ DE IGNACIO DE LA LLAVE,87,Xalapa,1,Xalapa-Enríquez,1302,12,2282421566,,,Fijo,19.52320598,-96.901076,2019-11,31181
7214,7505336,PANADERIA SIN NOMBRE,,311812,Panificación tradicional,0 a 5 personas,CALLE,ALFREDO BAIZABAL OLMOS,CALLE,AVENIDA MOZOMBOA,CALLE,PEDRO GRAJALES,CALLE,CRUZ ACOSTA DOMÍNGUEZ,NA,SN,,NA,NA,,BARRIO,BARRIO CINCO,,,,91480,30,VERACRUZ DE IGNACIO DE LA LLAVE,4,Actopan,30,Mozomboa,212,42,,,,Fijo,19.5049879,-96.47581748,2019-11,31181
8020,7037787,PANIFICACIÓN TRADICIONAL,,311812,Panificación tradicional,0 a 5 personas,CALLE,FRATERNIDAD,CALLE,UNION,CALLE,MARGARITA MORA VELIZ,CALLE,CLARA CORDOVA MORAN,0,SN,,NA,0,,COLONIA,UNIDAD ANTORCHISTA,,,,91018,30,VERACRUZ DE IGNACIO DE LA LLAVE,87,Xalapa,1,Xalapa-Enríquez,2334,1,,,,Fijo,19.56940096,-96.94480674,2019-11,31181
8285,4270883,PANINI GALLETAS,,311820,Elaboración de galletas y pastas para sopa,0 a 5 personas,BOULEVARD,ADOLFO RUIZ CORTINES,CALLE,JORGE SERDAN,AVENIDA,PRIMERO DE MAYO,CALLE,ANTONIO MUÑOZ,2701,,,NA,NA,,COLONIA,ADOLFO LOPEZ MATEOS912,,,,91200,30,VERACRUZ DE IGNACIO DE LA LLAVE,87,Xalapa,1,Xalapa-Enríquez,18,30,,,,Fijo,19.54810325,-96.93563111,2014-12,31182
8880,9267801,PITECO,,311710,Preparación y envasado de pescados y mariscos,0 a 5 personas,CALLE,MELCHOR OCAMPO,CALLE,NEZAHUALCOYOTL,CALLE,ROCKEFELLER,CALLE,ROCKEFELLER,436,,,NA,NA,,COLONIA,CENTRO,,,,95270,30,VERACRUZ DE IGNACIO DE LA LLAVE,11,Alvarado,1,Alvarado,217,18,,,,Fijo,18.77366913,-95.75958986,2020-11,31171
9379,8723304,SALUD Y SABOR,SALUD Y SABOR SA DE CV,311612,"Corte y empacado de carne de ganado, aves y otros animales comestibles",51 a 100 personas,CALLE,NINGUNO,CALLE,MANGO,CALLE,PAPAYA,OTRO (ESPECIFIQUE),NINGUNO,0,LOTE 4,,NA,0,P,COLONIA,RAFAEL DIAZ SERDAN,CENTRAL DE ABASTO,CENTRAL DE ABASTOS VERACRUZ,,91963,30,VERACRUZ DE IGNACIO DE LA LLAVE,193,Veracruz,1,Veracruz,2337,33,,,,Fijo,19.14446169,-96.15788942,2019-11,31161
10057,4479670,TORTILLERIA DE LA MORA,,311830,Elaboración de tortillas de maíz y molienda de nixtamal,0 a 5 personas,CALLE,HERMENEGILDO GALEANA,CALLE,A. M. ECHEGARAY,CALLE,ÚRSULO GALVAN,CALLE,ÚRSULO GALVÁN,18,,,NA,NA,,COLONIA,JARDINES DE BAMBU,,,,91000,30,VERACRUZ DE IGNACIO DE LA LLAVE,87,Xalapa,1,Xalapa-Enríquez,997,3,,,,Fijo,19.52581047,-96.9313282,2010-07,31183
10160,8491996,TORTILLERIA EBANO,,311830,Elaboración de tortillas de maíz y molienda de nixtamal,0 a 5 personas,CALLE,EBANO,CALLE,CIRUELOS,CALLE,QUINTA PRIVADA DE ÉBANO,ANDADOR,UVAS,NA,SN,,NA,NA,,COLONIA,EL PORVENIR II,,,,91018,30,VERACRUZ DE IGNACIO DE LA LLAVE,87,Xalapa,1,Xalapa-Enríquez,2137,16,,,,Fijo,19.56206282,-96.93608443,2019-11,31183
10871,8408633,TORTILLERIA LA FE,,311830,Elaboración de tortillas de maíz y molienda de nixtamal,0 a 5 personas,CALLE,PRINCIPAL,CALLE,PUERTO DE CORTES,ANDADOR,CUATRO,ANDADOR,DOS,NA,SN,,NA,NA,,COLONIA,EL MORAL,,,,91158,30,VERACRUZ DE IGNACIO DE LA LLAVE,87,Xalapa,1,Xalapa-Enríquez,1567,2,,,,Fijo,19.57119099,-96.91110393,2019-11,31183
11183,9117952,TORTILLERIA LAS CARMELITAS,,311830,Elaboración de tortillas de maíz y molienda de nixtamal,0 a 5 personas,CALLE,EQUIDAD,CALLE,AGUSTIN YAÑEZ,CALLE,CALLEJUELA 11 NORTE,CALLE,HONESTIDAD,132,,,NA,NA,,COLONIA,VIAS FERREAS,,,,91713,30,VERACRUZ DE IGNACIO DE LA LLAVE,193,Veracruz,1,Veracruz,608,10,2297791065,,,Fijo,19.19267328,-96.16286138,2019-11,31183
11894,4270678,TORTILLERÍA SAN ROQUE,,311830,Elaboración de tortillas de maíz y molienda de nixtamal,0 a 5 personas,CALLE,REFORMA AGRARIA,PROLONGACION,VILLAHERMOSA,PROLONGACION,ACUEDUCTO,ANDADOR,DOS,NA,SN,,NA,NA,,COLONIA,NIÑOS HEROES,,,,91015,30,VERACRUZ DE IGNACIO DE LA LLAVE,87,Xalapa,1,Xalapa-Enríquez,1251,34,,,,Fijo,19.55761023,-96.93564291,2014-12,31183
12421,7748386,VENTA DE CHICHARRON DE PYERCO,,311910,Elaboración de botanas,0 a 5 personas,CERRADA,GUAYA,CALLE,ZAPOTE,CALLE,CAÑA MAZO,CALLE,CACAO,71,B,,NA,0,,COLONIA,RESERVA TARIMOYA II,,,,91855,30,VERACRUZ DE IGNACIO DE LA LLAVE,193,Veracruz,1,Veracruz,1945,4,,,,Fijo,19.19108529,-96.18321679,2019-11,31191
12449,7855345,VENTA DE DULCES HIELITOS Y CHICHARRONES SIN NOMBRE,,311340,"Elaboración de dulces, chicles y productos de confitería que no sean de chocolate",0 a 5 personas,CALLE,TEOTIHUACAN,AVENIDA,ANTONIO CHEDRAUI CARAM,CALLE,SECCION 2,PRIVADA,ANTONIO CHEDRAUI CARAM,NA,SN,,NA,NA,,COLONIA,ENCINAL,,,,91180,30,VERACRUZ DE IGNACIO DE LA LLAVE,87,Xalapa,1,Xalapa-Enríquez,126,9,,,,Fijo,19.53718291,-96.90487192,2019-11,31134
12625,4274871,VENTA DE MIEL DE ABEJA DURAN,,311999,Elaboración de otros alimentos,6 a 10 personas,CALLE,COFRE DE PEROTE,AVENIDA,MONTES URALES,CALLE,MONTE EVEREST,CALLE,JAMAICA,7,,,NA,NA,,COLONIA,HIGUERAS,,,,91157,30,VERACRUZ DE IGNACIO DE LA LLAVE,87,Xalapa,1,Xalapa-Enríquez,592,27,,,,Fijo,19.54701277,-96.88984303,2014-12,31199
12843,7738319,VENTA DE QUESOS SIN NOMBRE,,311513,Elaboración de derivados y fermentos lácteos,0 a 5 personas,AVENIDA,MIGUEL ALEMAN,CALLE,TEHUANTEPEC,CALLE,LAGUNA,CALLE,CAMPESINO,0,SN,MERCADO PUBLICO,1,0,,FRACCIONAMIENTO,FLORESTA,MERCADO PUBLICO,MALIBRAN,SN,91940,30,VERACRUZ DE IGNACIO DE LA LLAVE,193,Veracruz,1,Veracruz,1042,1,2291116753,,,Fijo,19.15941749,-96.13958216,2019-11,31151
13251,7623896,VENTA DE VOLOVANES RICHARD,,311812,Panificación tradicional,0 a 5 personas,CERRADA,CERRADA DE SATURNO,CALLE,SATURNO,CALLE,J. P. SILVA,CERRADA,CERRADA DE SATURNO,302,,,NA,NA,,UNIDAD HABITACIONAL,INFONAVIT BUENAVISTA,,,,91850,30,VERACRUZ DE IGNACIO DE LA LLAVE,193,Veracruz,1,Veracruz,114,24,,,,Fijo,19.19831305,-96.16519669,2019-11,31181
13334,4275638,ZAVE TECNOLOGIA ALIMENTARIA,,311940,Elaboración de condimentos y aderezos,11 a 30 personas,CALLE,COSTA RICA,CALLE,ENCINO,CALLE,NICARAGUA,CALLE,BOLIVIA,68,,,NA,0,,COLONIA,FRANCISCO I. MADERO,,,,91070,30,VERACRUZ DE IGNACIO DE LA LLAVE,87,Xalapa,1,Xalapa-Enríquez,978,13,2288414735,ZAVE_ATENCION@TELMEXMAIL.COM,,Fijo,19.52196748,-96.93310414,2014-12,31194
13397,8342914,ADM MEXICO,ADM MEXICO SA DE CV,431150,"Comercio al por mayor de semillas y granos alimenticios, especias y chiles secos",0 a 5 personas,CALLE,TAMARINDOS,AVENIDA,ARRAYANES,CALLE,COCOTEROS,AVENIDA,ARAUCARIAS,NA,SN,,NA,NA,,CIUDAD INDUSTRIAL,BRUNO PAGLIAI,,,,91697,30,VERACRUZ DE IGNACIO DE LA LLAVE,193,Veracruz,87,Valente Díaz,824,31,,,,Fijo,19.1656712,-96.23509091,2019-11,43115
13537,4430027,BODEGA DE PAPAS CHAVEZ,,431130,Comercio al por mayor de frutas y verduras frescas,0 a 5 personas,CALLE,NINGUNO,CALLE,CUATRO,CALLE,ABELARDO L. RODRÍGUEZ,CALLE,NINGUNO,56,,,NA,0,,FRACCIONAMIENTO,FLORESTA,MERCADO PUBLICO,MALIBRAN,56,91940,30,VERACRUZ DE IGNACIO DE LA LLAVE,193,Veracruz,1,Veracruz,1038,6,,,,Fijo,19.16052036,-96.13662383,2010-07,43113
13680,9250492,COMERCIAL ROCHE,COMERCIAL ROCHE SA DE CV,431199,Comercio al por mayor de otros alimentos,0 a 5 personas,CALLE,Robles,CALLE,JOSÉ DE LIZARDI,AVENIDA,DE LAS TORRES,CALLE,Acacias,0,SN,,NA,0,,COLONIA,CIUDAD INDUSTRIAL BRUNO PLAGLIAI,,,,91697,30,VERACRUZ DE IGNACIO DE LA LLAVE,193,Veracruz,87,Valente Díaz,824,24,,,,Fijo,19.16794248,-96.23198972,2020-04,43119
13747,8723778,COMERCIO AL POR MAYOR DE CARNE DE AVES,,431122,Comercio al por mayor de carne de aves,0 a 5 personas,AVENIDA,GUADALUPE VICTORIA,CALLE,SANCHEZ TAGLE,CALLE,ECHEVEN,AVENIDA,REVILLAGIGEDO,1698,,,NA,0,,COLONIA,CENTRO,,,,91700,30,VERACRUZ DE IGNACIO DE LA LLAVE,193,Veracruz,1,Veracruz,129,17,,CORPORATIVO.VERACRUZ.PUEBLA@GMAIL.COM,,Fijo,19.19978563,-96.15382926,2019-11,43112
13812,9285353,DESPENSA DEL HOGAR NETO,TIENDAS SUPER PRECIO SA DE CV,431110,Comercio al por mayor de abarrotes,11 a 30 personas,AVENIDA,AVENIDA DE LOS ATLETAS,CALLE,CARLOS MIGUEL PALACIOS,CALLE,FRANCISCO GONZALEZ BOCANEGRA,CALLE,ÁLAMOS,19,,,NA,NA,,COLONIA,VENUSTIANO CARRANZA,,,,91070,30,VERACRUZ DE IGNACIO DE LA LLAVE,87,Xalapa,1,Xalapa-Enríquez,982,14,,,,Fijo,19.52364569,-96.9252235,2020-11,43111
13826,6778851,"DISTRIBUIDORA DE BASICOS DEL CENTRO, S.A. DE C.V.",DISTRIBUIDORA DE BASICOS DEL CENTRO SA DE CV,431140,Comercio al por mayor de huevo,0 a 5 personas,CALLE,NINGUNO,CALLE,MANGO,CALLE,PAPAYA,CALLE,NARANJA,0,SN,,NA,NA,,COLONIA,RAFAEL DIAZ SERDAN,CENTRAL DE ABASTO,CENTRAL DE ABASTOS VERACRUZ,BODEGA 17,91963,30,VERACRUZ DE IGNACIO DE LA LLAVE,193,Veracruz,1,Veracruz,2337,34,,CONTABILIDAD@PANOVO.MX,,Fijo,19.14413445,-96.15940594,2017-03,43114
14060,6410399,LALA SURESTE CEDIS EMILIANO ZAPATA,COMERCIALIZADORA DE LACTEOS Y DERIVADOS SA DE CV,431160,Comercio al por mayor de leche y otros productos lácteos,101 a 250 personas,CARRETERA,XALAPA VERACRUZ,CALLE,NINGUNO,BOULEVARD,NINGUNO,OTRO (ESPECIFIQUE),BARRANCO,0,SN,,NA,0,,COLONIA,EL OLMO,,,,91194,30,VERACRUZ DE IGNACIO DE LA LLAVE,87,Xalapa,1,Xalapa-Enríquez,681,52,,EDGAR.SALINAS@GRUPOLALA.COM,WWW.GRUPOLALA.COM,Fijo,19.50750801,-96.86271617,2010-07,43116
14138,6410568,OFICINAS ADMINISTRATIVAS LA JOSEFINA,LA INDUSTRIAL DEL GOLFO DE VERACRUZ SA DE CV,431180,Comercio al por mayor de dulces y materias primas para repostería,11 a 30 personas,AVENIDA,FRANCISCO I. MADERO,CALLE,ESTEBAN MORALES,CALLE,MARIANO ARISTA,AVENIDA,5 DE MAYO,740,,,NA,0,,COLONIA,CENTRO,,,,91700,30,VERACRUZ DE IGNACIO DE LA LLAVE,193,Veracruz,1,Veracruz,203,2,,,WWW.DULCERIALAJOSEFINA.MX,Fijo,19.19646156,-96.13869044,2010-07,43118
14240,6412499,SALUD Y SABOR,SALUD Y SABOR SA DE CV,431170,Comercio al por mayor de embutidos,31 a 50 personas,CALLE,PLATANO,CALLE,NINGUNO,CALLE,NINGUNO,CALLE,CLAVELES,153,,,NA,NA,,COLONIA,RAFAEL DIAZ SERDAN,,,,91963,30,VERACRUZ DE IGNACIO DE LA LLAVE,193,Veracruz,1,Veracruz,2337,5,,LGALINDO@FOODSERVICE.COM.MX,,Fijo,19.14703375,-96.15960655,2010-07,43117
14431,8865018,2376_CONVENIENCIA VERACRUZ SUR,BIMBO SA DE CV,461190,Comercio al por menor de otros alimentos,251 y más personas,AVENIDA,FIDELIDAD,CALLE,Arrayanes,CARRETERA,VERACRUZ XALAPA,CALLE,Abedules,141,,,NA,0,,COLONIA,BRUNO PAGLIAI,,,,91697,30,VERACRUZ DE IGNACIO DE LA LLAVE,193,Veracruz,87,Valente Díaz,824,59,,SERVICIOALCLIENTE@GRUPOBIMBO.COM,WWW.BIMBO.COM.MX,Fijo,19.1649239,-96.22602413,2019-11,46119
16191,4318940,ABARROTES ARIES,,461110,"Comercio al por menor en tiendas de abarrotes, ultramarinos y misceláneas",0 a 5 personas,CALLE,6 DE ENERO DE 1915,CALLE,FRANCISCO I. MADERO,CALLE,BENITO JUAREZ,CALLE,6 DE ENERO DE 1915,NA,SN,,NA,NA,,COLONIA,TEJERIA,,,,91697,30,VERACRUZ DE IGNACIO DE LA LLAVE,193,Veracruz,87,Valente Díaz,1733,20,,,,Fijo,19.17196591,-96.22336685,2014-12,46111
16796,4423409,ABARROTES CARLITA,,461110,"Comercio al por menor en tiendas de abarrotes, ultramarinos y misceláneas",0 a 5 personas,CALLE,FEDERICO GARCIA LORCA,CALLE,JOSE VASCONCELOS,CALLE,J. E. ARCIPESTRE DE HITA,CALLE,SOR JUANA INÉS DE LA CRUZ,35,,,NA,0,,COLONIA,INFONAVIT CHIVERIA,,,,91714,30,VERACRUZ DE IGNACIO DE LA LLAVE,193,Veracruz,1,Veracruz,1447,13,,,,Fijo,19.18421562,-96.16816123,2010-07,46111
17915,4482315,ABARROTES CUATRO CORONAS,,461110,"Comercio al por menor en tiendas de abarrotes, ultramarinos y misceláneas",0 a 5 personas,CALLE,PASEO DEL MANGO,ANDADOR,DOS,CALLE,CAMINO REAL,CALLE,PASEO DEL NARANJO,94,,,NA,NA,,COLONIA,FOVISSSTE HORTALIZAS,,,,91808,30,VERACRUZ DE IGNACIO DE LA LLAVE,193,Veracruz,1,Veracruz,538,20,,,,Fijo,19.21165707,-96.18869019,2010-07,46111
24976,4441705,ABARROTES LAS LUCES,,461110,"Comercio al por menor en tiendas de abarrotes, ultramarinos y misceláneas",0 a 5 personas,CALLE,NANCHE,ANDADOR,BAOBAOS,CALLE,LICHY,CALLE,LICHY,698,,,NA,NA,,FRACCIONAMIENTO,UNIDAD HAB EL JOBO,,,,91948,30,VERACRUZ DE IGNACIO DE LA LLAVE,193,Veracruz,1,Veracruz,1589,8,,,,Fijo,19.14474141,-96.13642469,2010-07,46111
27449,4211253,ABARROTES MI FAVORITA,,461110,"Comercio al por menor en tiendas de abarrotes, ultramarinos y misceláneas",0 a 5 personas,CALLE,HEROES DE LA CONSTITUCION,CALLEJON,CALLEJON DE LA REFORMA,CALLE,HEROES DE PUEBLA,CALLE,HÉROES DE LA INDEPENDENCIA,NA,SN,,NA,NA,,COLONIA,21 DE ABRIL,,,,95275,30,VERACRUZ DE IGNACIO DE LA LLAVE,11,Alvarado,1,Alvarado,310,29,,,,Fijo,18.77314041,-95.77075166,2010-07,46111
28761,4482226,ABARROTES PISCIS,,461110,"Comercio al por menor en tiendas de abarrotes, ultramarinos y misceláneas",0 a 5 personas,CALLE,RIO MAGDALENA,CALLE,RIO CHAMPOTON,CALLE,RIO MAGDALENA,ANDADOR,RÍO NAZAS,NA,SN,,NA,NA,,UNIDAD HABITACIONAL,RIO MEDIO,,,,91809,30,VERACRUZ DE IGNACIO DE LA LLAVE,193,Veracruz,1,Veracruz,1856,9,,,,Fijo,19.20517523,-96.19478359,2010-07,46111
34587,4424654,ABARROTES ZULY,,461110,"Comercio al por menor en tiendas de abarrotes, ultramarinos y misceláneas",0 a 5 personas,CALLE,WILIAM SHAKESPEARE,CALLE,NINGUNO,CALLE,NINGUNO,CALLE,NINGUNO,43,,,NA,NA,,COLONIA,INFONAVIT CHIVERIA,,,,91714,30,VERACRUZ DE IGNACIO DE LA LLAVE,193,Veracruz,1,Veracruz,1659,43,2299343812,,,Fijo,19.18457245,-96.17041352,2010-07,46111
35003,6311881,BA EXPRESS COLONIA VASCONCELOS 1158,NUEVA WAL MART DE MEXICO S DE RL DE CV,462111,Comercio al por menor en supermercados,11 a 30 personas,AVENIDA,RAMON LOPEZ VELARDE,CALLE,ANDRES MOLINA,CALLE,MARTIN RUIZ GUZMAN,AVENIDA,MIIGUEL BERNAL,58,,,NA,NA,,COLONIA,JOSE VASCONCELOS,,,,91106,30,VERACRUZ DE IGNACIO DE LA LLAVE,87,Xalapa,1,Xalapa-Enríquez,1548,24,,ATENCIONACLIENTES@WALMART.COM,WWW.WALMART.COM.MX,Fijo,19.56847447,-96.91052901,2014-12,46211
35441,7886346,BODEGA DE DOÑA ISABEL,,461130,Comercio al por menor de frutas y verduras frescas,0 a 5 personas,CALLE,JUSTO SIERRA,CALLE,LICENCIADO BENIGNO DE NOGUEIRA IRIARTE,CALLE,SEGUNDA CUAUHTEMOC,CALLE,ALCALDE Y GARCÍA,NA,SN,MERCADO PUBLICO,5,NA,,COLONIA,CENTRO,MERCADO PUBLICO,ALCALDE Y GARCIA,SN,91000,30,VERACRUZ DE IGNACIO DE LA LLAVE,87,Xalapa,1,Xalapa-Enríquez,164,25,,,,Fijo,19.53025439,-96.91698078,2019-11,46113
36059,7415559,CARNES FRIAS LA CAPASORA,,461150,"Comercio al por menor de leche, otros productos lácteos y embutidos",0 a 5 personas,CALLE,EQUIDAD,CALLE,AGUSTIN YAÑEZ,CALLE,RAFAEL MURILLO VIDAL,CALLE,EFICACIA,155,,,NA,NA,,COLONIA,VIAS FERREAS,,,,91713,30,VERACRUZ DE IGNACIO DE LA LLAVE,193,Veracruz,1,Veracruz,608,1,,,,Fijo,19.19257223,-96.16285902,2019-11,46115
36065,7737395,CARNES FRIAS MATA,,461150,"Comercio al por menor de leche, otros productos lácteos y embutidos",0 a 5 personas,AVENIDA,MIGUEL ALEMAN,CALLE,TEHUANTEPEC,CALLE,LAGUNA,CALLE,CAMPESINO,0,SN,MERCADO PUBLICO,1,0,,FRACCIONAMIENTO,FLORESTA,MERCADO PUBLICO,MALIBRAN,SN,91940,30,VERACRUZ DE IGNACIO DE LA LLAVE,193,Veracruz,1,Veracruz,1042,1,,,,Fijo,19.15941749,-96.13958216,2019-11,46115
37207,4462551,CARNICERIA EL BUFALO,,461121,Comercio al por menor de carnes rojas,0 a 5 personas,CALLE,HORTENSIA,CALLE,NINGUNO,CALLE,ZONCUANTLA,CALLE,NINGUNO,40,,,NA,0,,COLONIA,FERROCARRILES,,,,91050,30,VERACRUZ DE IGNACIO DE LA LLAVE,87,Xalapa,1,Xalapa-Enríquez,1001,35,,,,Fijo,19.52919675,-96.93918763,2010-07,46112
38314,4314948,CARNICERIA LA CIMA,,461121,Comercio al por menor de carnes rojas,0 a 5 personas,CALLE,SOLIDARIDAD,CALLE,AGUSTIN YAÑEZ,CALLE,VIAS FERREAS,CALLE,DEMOCRACIA,65,,,NA,NA,,COLONIA,NUEVAS ESPERANZAS (POPULARES),,,,91713,30,VERACRUZ DE IGNACIO DE LA LLAVE,193,Veracruz,1,Veracruz,608,36,2291206827,,,Fijo,19.19137082,-96.16542031,2014-12,46112
38601,4274468,CARNICERIA LA MODERNA,,461121,Comercio al por menor de carnes rojas,0 a 5 personas,CALLE,GUSTAVO DIAZ ORDAZ,AVENIDA,CAMINO ANTIGUO A NAOLINCO,RETORNO,DOS,CALLE,CUATRO,104,,,NA,NA,,COLONIA,PREDIO DE LA VIRGEN,,,,91150,30,VERACRUZ DE IGNACIO DE LA LLAVE,87,Xalapa,1,Xalapa-Enríquez,086A,20,,,,Fijo,19.55051549,-96.90547008,2010-07,46112
42235,9309524,COMPRA Y VENTA SUPER CARNICERIA GRIJALVA,PRADERA DEL GRIJALVA ,461121,Comercio al por menor de carnes rojas,0 a 5 personas,CALLE,JUAN SOTO,CALLE,FRANCISCO I. MADERO,CALLE,NICOLAS BRAVO,CALLE,GUADALUPE VICTORIA,NA,SN,,NA,NA,,COLONIA,CENTRO,,,,95270,30,VERACRUZ DE IGNACIO DE LA LLAVE,11,Alvarado,1,Alvarado,151,3,,,,Fijo,18.76647452,-95.76008134,2020-11,46112
42512,8315528,CREMERIA LOBITOS,,461150,"Comercio al por menor de leche, otros productos lácteos y embutidos",0 a 5 personas,CALLE,LAGUNA VERDE,ANDADOR,LAGUNA AZUL,BOULEVARD,LAGUNA DEL COYOL,CALLE,LAGUNA DE TÉRMINOS,0,SN,,NA,0,,UNIDAD HABITACIONAL,EL COYOL,,,,91779,30,VERACRUZ DE IGNACIO DE LA LLAVE,193,Veracruz,1,Veracruz,124A,41,,,,Fijo,19.17081711,-96.16007339,2019-11,46115
43811,6407227,EL BODEGON DE SEMILLAS,EL BODEGON DE SEMILLAS SA DE CV,461140,"Comercio al por menor de semillas y granos alimenticios, especias y chiles secos",11 a 30 personas,CALLE,REVOLUCIÓN,CALLE,POETA JESÚS DÍAZ,CALLE,ABASOLO,CALLE,DOCTOR RAFAEL LUCIO,110,,,NA,0,,COLONIA,CENTRO,,,,91000,30,VERACRUZ DE IGNACIO DE LA LLAVE,87,Xalapa,1,Xalapa-Enríquez,015A,17,,,,Fijo,19.53267277,-96.92341863,2010-07,46114
43934,6411446,EL JAROCHO CARNICERIAS,CARNES ANNIE SA DE CV,461121,Comercio al por menor de carnes rojas,0 a 5 personas,AVENIDA,ATENAS VERACRUZANA,CALLE,FÉLIX ZULOAGA,CALLE,MARIANO SALAS,VIADUCTO,NINGUNO,1005,,,NA,NA,,COLONIA,REVOLUCION,,,,91100,30,VERACRUZ DE IGNACIO DE LA LLAVE,87,Xalapa,1,Xalapa-Enríquez,1228,7,,,,Fijo,19.56797149,-96.91687573,2014-12,46112
44088,4275432,EMBUTIDOS NARALY,,461150,"Comercio al por menor de leche, otros productos lácteos y embutidos",0 a 5 personas,CALLE,HERON PEREZ,CALLE,FRANCISCO MORENO,CALLE,TEODORO AVENDAÑO,CALLE,HONORIO RODRÍGUEZ,54,,,NA,NA,,COLONIA,FRANCISCO FERRER GUARDIA,,,,91020,30,VERACRUZ DE IGNACIO DE LA LLAVE,87,Xalapa,1,Xalapa-Enríquez,107,17,,,,Fijo,19.536343,-96.93350971,2014-12,46115
44205,4273570,ESTANQUILLO DOÑA MARI,,461160,Comercio al por menor de dulces y materias primas para repostería,0 a 5 personas,CALLE,MARACUYA,AVENIDA,ORIENTE,CALLE,BUGAMBILIA,CALLE,GIRASOLES,14,,,NA,NA,,COLONIA,ARBOLEDAS DEL TRONCONAL,,,,91158,30,VERACRUZ DE IGNACIO DE LA LLAVE,87,Xalapa,1,Xalapa-Enríquez,1919,19,,,,Semifijo,19.56831926,-96.88917459,2014-12,46116
45407,4468783,FRUTAS Y VERDURAS,,461130,Comercio al por menor de frutas y verduras frescas,0 a 5 personas,CALLE,ENRIQUE Z. MERCADO,CALLE,FERROCARRIL INTEROCEANICO,PRIVADA,NORTE,CALLE,EMILIO LEYZEGUI,0,SN,,NA,0,,COLONIA,COLONIAS DE JALAPA,,,,91037,30,VERACRUZ DE IGNACIO DE LA LLAVE,87,Xalapa,1,Xalapa-Enríquez,126,35,,,,Semifijo,19.53695038,-96.9098286,2010-07,46113
45746,7505347,FRUTAS Y VERDURAS DEL CENTRO,,461130,Comercio al por menor de frutas y verduras frescas,0 a 5 personas,CALLE,AVENIDA MOZOMBOA,PRIVADA,SANTOS DEGOLLADO,CALLE,JUSTO SIERRA,CALLE,ROMANA PÉREZ C,NA,SN,,NA,NA,,BARRIO,BARRIO CINCO,,,,91480,30,VERACRUZ DE IGNACIO DE LA LLAVE,4,Actopan,30,Mozomboa,212,34,2969640377,,,Fijo,19.50487007,-96.4772506,2019-11,46113
45764,7749729,FRUTAS Y VERDURAS DON CHAVA,,461130,Comercio al por menor de frutas y verduras frescas,0 a 5 personas,CALLE,MIGUEL DE CERVANTES SAAVEDRA,CALLE,GARCILAZO DE LA VEGA,CALLE,JOSE VASCONCELOS,CALLE,HONORATO DE BALZAC,193,,,NA,0,,COLONIA,INFONAVIT CHIVERIA,,,,91714,30,VERACRUZ DE IGNACIO DE LA LLAVE,193,Veracruz,1,Veracruz,1447,8,,,,Fijo,19.18495303,-96.16636537,2019-11,46113
45927,4309041,FRUTAS Y VERDURAS FANY,,461130,Comercio al por menor de frutas y verduras frescas,6 a 10 personas,BOULEVARD,LOMAS DE SANTA FE,CALLE,SAN JOSE,BOULEVARD,SANTA PAZ,AVENIDA,SAN LUCIANO,0,SN,,NA,0,B,FRACCIONAMIENTO,COLINAS DE SANTA FE,,,,91808,30,VERACRUZ DE IGNACIO DE LA LLAVE,193,Veracruz,228,Colinas de Santa Fe,3227,20,,GARROFRANROMERO77@GMAIL.COM,,Fijo,19.22359617,-96.2425257,2014-12,46113
45984,4274164,FRUTAS Y VERDURAS HERMANOS CANO,,461130,Comercio al por menor de frutas y verduras frescas,0 a 5 personas,AVENIDA,MARINA NACIONAL,PRIVADA,SATURNO,CALLE,CONTINENTE ASIATICO,CALLE,CONTINENTE EUROPEO,NA,SN,,NA,NA,,COLONIA,UNIDAD HABITACIONAL MIRADORES DEL SUMIDERO,,,,91157,30,VERACRUZ DE IGNACIO DE LA LLAVE,87,Xalapa,1,Xalapa-Enríquez,2071,31,2298796505,,,Fijo,19.55781557,-96.901631,2014-12,46113
46298,8397050,FRUTAS Y VERDURAS LOS NIETOS DEL BRUJITO,FRUTAS Y VERDURAS SIN NOMBRE ,461130,Comercio al por menor de frutas y verduras frescas,0 a 5 personas,AVENIDA,ORQUIDEAS,CALLE,AZALEAS,CALLE,GLADIOLAS,AVENIDA,AMAPOLAS,254,,,NA,NA,,COLONIA,EL VERGEL,,,,91715,30,VERACRUZ DE IGNACIO DE LA LLAVE,193,Veracruz,1,Veracruz,580,23,,,,Fijo,19.18341476,-96.17287697,2019-11,46113
46661,7841860,FRUTAS Y VERDURAS SIN NOMBRE,,461130,Comercio al por menor de frutas y verduras frescas,0 a 5 personas,PROLONGACION,MANZANO,CALLE,MAR CASPIO,CALLE,CAMINO ANTIGUO A NAOLINCO,CALLE,NINGUNO,0,SN,,NA,0,,COLONIA,EL SUMIDERO,,,,91157,30,VERACRUZ DE IGNACIO DE LA LLAVE,87,Xalapa,1,Xalapa-Enríquez,086A,42,,,,Semifijo,19.55327861,-96.89931559,2019-11,46113
47423,4450807,FRUTERIA ROSY,,461130,Comercio al por menor de frutas y verduras frescas,0 a 5 personas,AVENIDA,ATENAS VERACRUZANA,CALLE,CARLOS I,CALLE,FERNANDO V.,CALLE,NINGUNO,NA,SN,,NA,NA,,COLONIA,REVOLUCION,,,,91100,30,VERACRUZ DE IGNACIO DE LA LLAVE,87,Xalapa,1,Xalapa-Enríquez,1209,30,,,,Fijo,19.56986585,-96.9183952,2010-07,46113
47813,4270921,HELADOS BAMBI,,461170,Comercio al por menor de paletas de hielo y helados,0 a 5 personas,BOULEVARD,ADOLFO RUIZ CORTINES,CALLE,JORGE SERDAN,AVENIDA,PRIMERO DE MAYO,CALLE,ANTONIO MUÑOZ,2701,,,NA,2,,COLONIA,ADOLFO LOPEZ MATEOS912,,,,91200,30,VERACRUZ DE IGNACIO DE LA LLAVE,87,Xalapa,1,Xalapa-Enríquez,18,30,2222221469,HELADOS_BAMBI_OFICIAL@HOTMAIL.COM,HELADOSBAMBI.COM,Fijo,19.54810325,-96.93563111,2014-12,46117
52962,4270395,MISCELANEA LUPITA,,462112,Comercio al por menor en minisupers,0 a 5 personas,CALLE,NORTE OCHO,CALLE,TIJUANA,AVENIDA,VILLAHERMOSA,CALLE,COATZACOALCOS,7,,,NA,0,,COLONIA,PROGRESO MACUILTEPETL,,,,91130,30,VERACRUZ DE IGNACIO DE LA LLAVE,87,Xalapa,1,Xalapa-Enríquez,1143,41,,,,Fijo,19.55415,-96.91741,2014-12,46211
54054,4450498,MISCELÁNEA SAN JOSÉ,,461110,"Comercio al por menor en tiendas de abarrotes, ultramarinos y misceláneas",0 a 5 personas,CALLE,GRACIANO VALENZUELA,AVENIDA,LAZARO CARDENAS,CALLE,RAFAEL AGUIRRE CINTA,CALLE,FÉLIX LICONA,219,,,NA,NA,,COLONIA,RAFAEL MURILLO VIDAL SUR,,,,91110,30,VERACRUZ DE IGNACIO DE LA LLAVE,87,Xalapa,1,Xalapa-Enríquez,1143,18,,,,Fijo,19.55848,-96.91997,2010-07,46111
55294,4315574,MOLINO DE NIXTAMAL EL GRANO DE ORO,,461190,Comercio al por menor de otros alimentos,0 a 5 personas,AVENIDA,NICOLAS BRAVO,CALLEJON,CALLEJON DE LA RISA,CALLE,CARLOS CRUZ,AVENIDA,VICENTE GUERRERO,NA,SN,,NA,NA,,COLONIA,ZONA CENTRO,,,,91700,30,VERACRUZ DE IGNACIO DE LA LLAVE,193,Veracruz,1,Veracruz,241,13,,,,Semifijo,19.19145,-96.13747,2014-12,46119
55366,9309323,NETO,NETO ,462112,Comercio al por menor en minisupers,0 a 5 personas,CALLE,GONZALEZ PAGES,CALLEJON,CALLEJON DE LA HOZ,AVENIDA,MIGUEL HIDALGO,CALLE,TENOYA,88,,,NA,0,,COLONIA,CENTRO,,,,91700,30,VERACRUZ DE IGNACIO DE LA LLAVE,193,Veracruz,1,Veracruz,241,30,,,,Fijo,19.19394,-96.13629,2020-11,46211
55456,4276036,NUECES Y PISTACHES DEL CENTRO,DIBOCE DISTRIBUIDORA DE BOTANAS Y CEREALES SA DE CV,461160,Comercio al por menor de dulces y materias primas para repostería,0 a 5 personas,CALLE,FRANCISCO JAVIER CLAVIJERO,CALLE,GUADALUPE VICTORIA,CALLE,SAYAGO,CALLE,JOSÉ AZUETA,85,,,NA,NA,,COLONIA,ZONA CENTRO,,,,91000,30,VERACRUZ DE IGNACIO DE LA LLAVE,87,Xalapa,1,Xalapa-Enríquez,145,13,,,,Fijo,19.53221,-96.92452,2014-12,46116
56018,6409601,OXXO SUC 50RYU ROTONDA JAL,CADENA COMERCIAL OXXO SA DE CV,462112,Comercio al por menor en minisupers,6 a 10 personas,CALLE,REVOLUCIÓN,CALLE,FEDERICO FROEBEL,CALLE,MANUEL D. BOZA,CALLE,LUIS JIMÉNEZ,338,,,NA,NA,,COLONIA,PROGRESO MACUILTEPETL SUR,,,,91100,30,VERACRUZ DE IGNACIO DE LA LLAVE,87,Xalapa,1,Xalapa-Enríquez,111,6,,ATENCIONCLIENTES@OXXO.COM,WWW.OXXO.COM,Fijo,19.53964,-96.92281,2010-07,46211
56035,6854946,OXXO SUC 50SPR RESIDDEL BOSQUE VER,CADENA COMERCIAL OXXO SA DE CV,462112,Comercio al por menor en minisupers,6 a 10 personas,AVENIDA,FELIX REYES OLIVARES,CALLE,CALLE PETIRROJO,CALLE,NINGUNO,CALLE,CARDENAL,122,,,NA,NA,,FRACCIONAMIENTO,RESIDENCIAL DEL BOSQUE,,,,91697,30,VERACRUZ DE IGNACIO DE LA LLAVE,193,Veracruz,242,Residencial del Bosque,2318,12,,ATENCIONCLIENTES@OXXO.COM,WWW.OXXO.COM,Fijo,19.14733,-96.22375,2020-04,46211
56070,6409604,OXXO SUC 50UBE URIBE VER,CADENA COMERCIAL OXXO SA DE CV,462112,Comercio al por menor en minisupers,6 a 10 personas,AVENIDA,SALVADOR DÍAZ MIRÓN,CALLE,VIRGILIO URIBE,CALLE,JOSÉ AZUETA,CALLE,GONZÁLEZ PAGES,1300,,,NA,NA,,COLONIA,CENTRO,,,,91700,30,VERACRUZ DE IGNACIO DE LA LLAVE,193,Veracruz,1,Veracruz,307,11,,ATENCIONCLIENTES@OXXO.COM,WWW.OXXO.COM,Fijo,19.18852,-96.13534,2010-07,46211
56171,6412331,OXXO SUC 50XVX XICOTENCALT VER,CADENA COMERCIAL OXXO SA DE CV,462112,Comercio al por menor en minisupers,6 a 10 personas,CALLE,XICOTÉNCATL,CALLE,IGNACIO LÓPEZ RAYÓN,CALLE,VÍCTIMAS DEL 25 DE JUNIO,AVENIDA,16 DE SEPTIEMBRE,521,,,NA,NA,,FRACCIONAMIENTO,FAROS,,,,91709,30,VERACRUZ DE IGNACIO DE LA LLAVE,193,Veracruz,1,Veracruz,260,10,,ATENCIONCLIENTES@OXXO.COM,WWW.OXXO.COM,Fijo,19.19802,-96.13137,2010-07,46211
57636,4273118,PESCADOS Y MARISCOS EL CAMARON DORADO,,461123,Comercio al por menor de pescados y mariscos,0 a 5 personas,AVENIDA,ANTONIO CHEDRAUI CARAM,PRIVADA,ANTONIO CHEDRAUI CARAM,AVENIDA,LAZARO CARDENAS,CALLE,ENRIQUE Z. MERCADO,226,,,NA,NA,,COLONIA,ENCINAL,,,,91180,30,VERACRUZ DE IGNACIO DE LA LLAVE,87,Xalapa,1,Xalapa-Enríquez,126,9,,,,Fijo,19.53659,-96.90723,2014-12,46112
60485,4276483,POLLOS A LA LEÑA GUASAVE,,461122,Comercio al por menor de carne de aves,0 a 5 personas,CALLE,PIPILA,CALLE,ALFARO,CALLE,INSURGENTES,CALLE,FRANCISCO I. MADERO,51,B,,NA,0,,COLONIA,DEL EMPLEADO,,,,91030,30,VERACRUZ DE IGNACIO DE LA LLAVE,87,Xalapa,1,Xalapa-Enríquez,015A,32,2281808756,,,Fijo,19.53562,-96.91985,2014-12,46112
61093,4463652,PUESTO LANDA,,461160,Comercio al por menor de dulces y materias primas para repostería,0 a 5 personas,CALLE,DOS,CALLE,NORTE,CALLE,GUSTAVO DIAZ ORDAZ,CALLE,TRES,113,SN,,NA,NA,,COLONIA,MARGARITA MAZA DE JUAREZ,,,,91157,30,VERACRUZ DE IGNACIO DE LA LLAVE,87,Xalapa,1,Xalapa-Enríquez,1730,3,,,,Fijo,19.55522,-96.9072,2010-07,46116
62052,7887058,SUPER CARNICERIA EL CAPRICHO,,461121,Comercio al por menor de carnes rojas,0 a 5 personas,AVENIDA,ORIZABA,CALLE,FRANCISCO VAZQUEZ,PRIVADA,SANTIAGO BONILLA,CALLE,SANTIAGO BONILLA,123,,,NA,0,,COLONIA,ADOLFO LOPEZ MATEOS,,,,91020,30,VERACRUZ DE IGNACIO DE LA LLAVE,87,Xalapa,1,Xalapa-Enríquez,111A,33,2281827525,,,Fijo,19.54576,-96.92995,2019-11,46112
62382,6410144,SUPER FASTI AV. ORIZABA,ABARROTES FASTI SA DE CV,462112,Comercio al por menor en minisupers,0 a 5 personas,AVENIDA,ORIZABA,CALLE,F. RIVERA,CALLE,JESÚS REYES HEROLES,CALLE,SANTIAGO BONILLA,99,,,NA,NA,,COLONIA,OBRERO CAMPESINA,,,,91020,30,VERACRUZ DE IGNACIO DE LA LLAVE,87,Xalapa,1,Xalapa-Enríquez,111A,6,,,WWW.SUPERFASTI.COM,Fijo,19.5433,-96.93014,2010-07,46211
63109,4434945,TENDAJON REY,,461110,"Comercio al por menor en tiendas de abarrotes, ultramarinos y misceláneas",0 a 5 personas,CALLE,GABRIEL GARCIA MARQUEZ,CALLE,JULIO VERNE,CALLE,MIGUEL N. LIRA,CALLE,MIGUEL RAMOS CARRIÓN,0,SN,,NA,0,,COLONIA,PREDIO CUATRO,,,,91777,30,VERACRUZ DE IGNACIO DE LA LLAVE,193,Veracruz,1,Veracruz,2159,7,,,,Fijo,19.15979,-96.1647,2010-07,46111
69679,7821776,TIENDA DE ABARROTES SIN NOMBRE,,461110,"Comercio al por menor en tiendas de abarrotes, ultramarinos y misceláneas",0 a 5 personas,CALLE,CUARTEL GENERAL,CALLE,COLEGIO MILITAR,AVENIDA,CAMINO ANTIGUO A NAOLINCO,ANDADOR,ANDADOR DEL SOLDADO,NA,SN,,NA,NA,,COLONIA,CAMPO DE TIRO,,,,91107,30,VERACRUZ DE IGNACIO DE LA LLAVE,87,Xalapa,1,Xalapa-Enríquez,1980,21,,,,Fijo,19.56675,-96.90161,2019-11,46111
73804,4274095,TIENDA DE DULCES SIN NOMBRE,,461160,Comercio al por menor de dulces y materias primas para repostería,0 a 5 personas,CALLE,MARIANO ARISTA,AVENIDA,VICENTE GUERRERO,CALLE,NICOLAS BRAVO,CALLE,CARLOS SALINAS DE GORTARI,60,,,NA,0,,COLONIA,NACIONAL,,,,91158,30,VERACRUZ DE IGNACIO DE LA LLAVE,87,Xalapa,1,Xalapa-Enríquez,1482,9,2281256515,,,Fijo,19.5611,-96.90286,2014-12,46116
74916,6410422,TIENDAS LORES,TIENDAS LORES SA DE CV,462112,Comercio al por menor en minisupers,11 a 30 personas,AVENIDA,SALVADOR DÍAZ MIRÓN,CALLE,MARIANO ABASOLO,CALLE,TAMPICO,CALLE,GONZÁLEZ PAGES,277,,,NA,0,,COLONIA,CENTRO,,,,91700,30,VERACRUZ DE IGNACIO DE LA LLAVE,193,Veracruz,1,Veracruz,241,25,,,WWW.TIENDASLORES.COM,Fijo,19.19146,-96.13536,2010-07,46211
77702,4430083,VENTA DE ELOTES MAGUITO,,461130,Comercio al por menor de frutas y verduras frescas,0 a 5 personas,CALLE,ABELARDO L. RODRIGUEZ,CALLE,NINGUNO,CALLE,LA MILPA,CALLE,CUATRO,NA,SN,MERCADO PUBLICO,1,NA,,FRACCIONAMIENTO,FLORESTA,MERCADO PUBLICO,MALIBRAN,1,91940,30,VERACRUZ DE IGNACIO DE LA LLAVE,193,Veracruz,1,Veracruz,1038,20,,,,Fijo,19.16072,-96.13638,2014-12,46113
78200,7886907,VENTA DE FRUTAS Y VERDURAS SIN NOMBRE,,461130,Comercio al por menor de frutas y verduras frescas,0 a 5 personas,CALLE,JOSE MARIA MORELOS,CALLE,SEBASTIAN CAMACHO,CALLE,NICOLAS BRAVO,CALLE,MIGUEL BARRAGÁN,80,,,NA,NA,,COLONIA,CENTRO,,,,91000,30,VERACRUZ DE IGNACIO DE LA LLAVE,87,Xalapa,1,Xalapa-Enríquez,215,23,2281506840,,,Fijo,19.52387,-96.92101,2019-11,46113
79628,9267348,VENTA DE POLLO FRESCO SIN NOMBRE,,461122,Comercio al por menor de carne de aves,0 a 5 personas,AVENIDA,LAZARO CARDENAS,CALLE,MORA BERISTAIN,CALLE,ESCUADRON 201,CALLE,BOLIVIA,111,,,NA,0,,COLONIA,BENITO JUAREZ,,,,91070,30,VERACRUZ DE IGNACIO DE LA LLAVE,87,Xalapa,1,Xalapa-Enríquez,978,21,,,,Semifijo,19.52509,-96.9346,2020-11,46112
79795,4272289,VENTA DE POLLO SIN NOMBRE,,461122,Comercio al por menor de carne de aves,0 a 5 personas,CALLE,PIPILA,CALLE,JORGE SERDAN SUR,CALLE,JORGE SERDAN NORTE,CALLE,GOBERNADOR ANTONIO M. QUIRASCO,NA,SN,,NA,NA,,COLONIA,BENITO JUAREZ SUR,,,,91170,30,VERACRUZ DE IGNACIO DE LA LLAVE,87,Xalapa,1,Xalapa-Enríquez,1069,32,,,,Semifijo,19.54217,-96.91231,2014-12,46112
80537,8314784,VENTA DE PRODUCTOS VERACRUZANOS LUNA DE PLATA,GASTRONOMICA DEL AIRE SA DE CV,461190,Comercio al por menor de otros alimentos,0 a 5 personas,CARRETERA,SIN REFERENCIA,OTRO (ESPECIFIQUE),NINGUNO,OTRO (ESPECIFIQUE),NINGUNO,OTRO (ESPECIFIQUE),NINGUNO,NA,SN,AEROPUERTO,1,NA,,COLONIA,GEN HERIBERTO JARA INTL,AEROPUERTO,AEROPUERTO INTERNACIONAL HERIBERTO JARA CORONA,1354,91698,30,VERACRUZ DE IGNACIO DE LA LLAVE,193,Veracruz,203,Antonio Exome Nahum,2318,800,,GASTRONOMICADELAIRE@HOTMAIL.COM,,Fijo,19.14234,-96.18363,2019-11,46119
81675,7748902,VERDULERIA LA CHOFI,,461130,Comercio al por menor de frutas y verduras frescas,0 a 5 personas,CALLE,PASEO DE AMATLAN,CALLE,PASEO PALMA REAL,CALLE,PASEO DE COATCACOALCOS,CALLE,PASEO DE ALVARADO,NA,SN,,NA,NA,,FRACCIONAMIENTO,PALMA REAL II,,,,91697,30,VERACRUZ DE IGNACIO DE LA LLAVE,193,Veracruz,87,Valente Díaz,2981,30,,,,Fijo,19.16983,-96.21829,2019-11,46113
82490,7855356,VERDULERIA SIN NOMBRE,,461130,Comercio al por menor de frutas y verduras frescas,0 a 5 personas,CALLE,LUIS DONALDO COLOSIO,CALLE,LOS PINOS,CALLE,CERESOS,CALLE,CIPRÉS,0,SN,,NA,0,,COLONIA,RESERVA TERRITORIAL,,,,91096,30,VERACRUZ DE IGNACIO DE LA LLAVE,87,Xalapa,86,Colonia Santa Bárbara,1834,4,,,,Fijo,19.49766,-96.87738,2019-11,46113
82665,9048364,VERDULERIA ZAMORA,,461130,Comercio al por menor de frutas y verduras frescas,0 a 5 personas,CALLE,TLAPACOYAN,CALLE,TEQUILA,CALLE,NINGUNO,CALLE,RIVERA DEL RÍO,60,,,NA,0,,COLONIA,RIO MEDIO GRANJA,,,,91808,30,VERACRUZ DE IGNACIO DE LA LLAVE,193,Veracruz,157,Río Medio [Granja],2905,43,,,,Fijo,19.21201,-96.20749,2019-11,46113
82840,6408564,YEPAS,SUPER SMART DE VERACRUZ SA DE CV,462112,Comercio al por menor en minisupers,11 a 30 personas,CALLE,I. ICAZO,AVENIDA,GUADALUPE VICTORIA,CALLE,BERRIOZÁBAL,CALLE,RAZ Y GUZMÁN,1010,,,NA,NA,,COLONIA,FORMANDO HOGAR,,,,91897,30,VERACRUZ DE IGNACIO DE LA LLAVE,193,Veracruz,1,Veracruz,129,4,,,,Fijo,19.20258,-96.15518,2010-07,46211
82982,6715416,"TRANSPORTES DE CARGA BERISTAIN, SA DE CV",TRANSPORTES DE CARGA BERISTAIN SA DE CV,484121,Autotransporte foráneo de productos agrícolas sin refrigeración,11 a 30 personas,CALLE,EMPARAN,AVENIDA,MIGUEL HIDALGO,AVENIDA,FRANCISCO I. MADERO,CALLE,BENITO JUAREZ,418,,EDIFICIOB,19,NA,,COLONIA,CENTRO,EDIFICIO COMERCIAL Y DE SERVICIOS,EDIFICIO BERISTAIN,,91700,30,VERACRUZ DE IGNACIO DE LA LLAVE,193,Veracruz,1,Veracruz,2623,5,,TRANSBERIS@BERISTAIN.COM.MX,WWW.BERISTAIN.COM.MX,Fijo,19.20032,-96.14229,2016-01,48412
83237,7253226,ANTIJITOS SIN NOMBRE,,722513,Restaurantes con servicio de preparación de antojitos,0 a 5 personas,CALLE,RIO CANDELARIA,CALLE,CAMINO REAL,PRIVADA,NINGUNO,CALLE,RÍO MAGDALENA,268,A,,NA,NA,,FRACCIONAMIENTO,LOMAS DE RIO MEDIO II,,,,91809,30,VERACRUZ DE IGNACIO DE LA LLAVE,193,Veracruz,1,Veracruz,2341,3,,,,Fijo,19.2113,-96.1966,2019-11,72251
85005,4477788,ANTOJITOS DOÑA MARI,,722513,Restaurantes con servicio de preparación de antojitos,0 a 5 personas,CALLE,JOSE MARIA ARTEAGA,CALLE,GENERAL PEDRO ANAYA,AVENIDA,20 DE NOVIEMBRE,CALLE,ALFONSO FLORES BELLO,83,,,NA,NA,,COLONIA,CENTRO,,,,91000,30,VERACRUZ DE IGNACIO DE LA LLAVE,87,Xalapa,1,Xalapa-Enríquez,164,3,,,,Fijo,19.53227,-96.9155,2010-07,72251
88109,7414759,ANTOJITOS PAHOLA,ANTOJITOS PAHOLA ,722513,Restaurantes con servicio de preparación de antojitos,0 a 5 personas,CALLE,RIO ERA,CALLE,RIO CHUMPAN,CALLE,RIO PAPALOAPAN,CALLE,RÍO ZANAPA,542,,,NA,NA,,FRACCIONAMIENTO,LOMAS DE RIO MEDIO III,,,,91809,30,VERACRUZ DE IGNACIO DE LA LLAVE,193,Veracruz,1,Veracruz,277A,2,,,,Fijo,19.20571,-96.20408,2019-11,72251
88950,7706909,ANTOJITOS SIN NOMBRE,,722513,Restaurantes con servicio de preparación de antojitos,0 a 5 personas,CALLE,SANCHEZ TAGLE,CALLEJON,CARRILLO PUERTO,CALLE,V. VELA,CALLEJON,BARRIOS,93,,,NA,NA,,COLONIA,ZONA CENTRO,,,,91700,30,VERACRUZ DE IGNACIO DE LA LLAVE,193,Veracruz,1,Veracruz,294,6,,,,Fijo,19.18712,-96.13827,2019-11,72251
90913,9269865,ASTRO INN HOTEL HOTEL EXPRESS,HOTEL ASTRO INN ,721111,Hoteles con otros servicios integrados,0 a 5 personas,AVENIDA,20 de Noviembre,CALLE,Joaquín Muñoz,CALLE,José de Arrillaga,CALLE,Primavera,5931,2,,NA,0,,COLONIA,ALVARO OBREGON,,,,91060,30,VERACRUZ DE IGNACIO DE LA LLAVE,87,Xalapa,1,Xalapa-Enríquez,1302,11,,GERENCIA@HOTELASTROINN.COM,WWW.HOTELASTROINN.COM,Semifijo,19.52513,-96.90135,2020-11,72111
91015,4477543,BANQUETES MACUS,,722320,Servicios de preparación de alimentos para ocasiones especiales,0 a 5 personas,CALLE,ENRIQUE Z. MERCADO,CALLE,FERROCARRIL INTEROCEANICO,CALLE,ENCANTO,CALLE,EMILIO LEYZEGUI,31,,,NA,NA,,COLONIA,EL MIRADOR,,,,91037,30,VERACRUZ DE IGNACIO DE LA LLAVE,87,Xalapa,1,Xalapa-Enríquez,94,12,2281427090,,,Fijo,19.53827,-96.91186,2010-07,72232
95340,4271704,COCINA ECONOMICA GUILLE,,722518,Restaurantes que preparan otro tipo de alimentos para llevar,0 a 5 personas,CALLE,NUEVO LEON,CALLE,SALTILLO,CALLE,MONTERREY,CALLE,GUANAJUATO,401,,,NA,NA,,COLONIA,PROGRESO MACUILTEPETL,,,,91130,30,VERACRUZ DE IGNACIO DE LA LLAVE,87,Xalapa,1,Xalapa-Enríquez,1088,7,,,,Fijo,19.54672,-96.92557,2014-12,72251
112092,6885556,RH LAND VERACRUZ,RH LAND SA DE CV,722310,Servicios de comedor para empresas e instituciones,251 y más personas,CALLE,HUISAR,CALLE,AGUSTÍN LARA,CALLE,LORENZO BARCELATA,CALLE,BEETHOVEN,2,,,NA,0,,FRACCIONAMIENTO,LAS ANIMAS,,,,91190,30,VERACRUZ DE IGNACIO DE LA LLAVE,87,Xalapa,1,Xalapa-Enríquez,395,37,,IMPUESTOS@CK.COM.MX,,Fijo,19.53537,-96.89105,2019-04,72231
112858,6466094,SOCIEDAD COOPERATIVA DE LA ESCUELA PRIMARIA JUAN ZILLI BERNARDI,,722515,"Cafeterías, fuentes de sodas, neverías, refresquerías y similares",0 a 5 personas,CALLE,CORDOBA,CALLE,ERNESTO ORTIZ MEDINA,AVENIDA,MANUEL ÁVILA CAMACHO,AVENIDA,XALAPA,2,,,NA,NA,,COLONIA,VERACRUZ SUR,,,,91020,30,VERACRUZ DE IGNACIO DE LA LLAVE,87,Xalapa,1,Xalapa-Enríquez,111A,9,,,,Fijo,19.53986,-96.92786,2010-07,72251
116744,4278518,TAQUERIA LUNAS,TAQUERIA ,722511,Restaurantes con servicio de preparación de alimentos a la carta o de comida corrida,0 a 5 personas,CIRCUITO,PRESIDENTES,CALLE,LOS PINOS,CALLE,POETA ÁNGEL NUÑEZ BELTRAN,PRIVADA,ALEJANDRO MOLINA,NA,SN,,NA,NA,SN,COLONIA,BUENAVISTA II,,,,91090,30,VERACRUZ DE IGNACIO DE LA LLAVE,87,Xalapa,1,Xalapa-Enríquez,129A,16,2288412492,,,Fijo,19.51157,-96.92503,2014-12,72251
117818,4477330,TAQUERIA TACOCORRO,,722514,Restaurantes con servicio de preparación de tacos y tortas,0 a 5 personas,CALLE,NUEVO LEON,CALLE,SALTILLO,CALLE,JORULLO,PRIVADA,GUANAJUATO,379,,,NA,NA,,COLONIA,PROGRESO MACUILTEPETL,,,,91130,30,VERACRUZ DE IGNACIO DE LA LLAVE,87,Xalapa,1,Xalapa-Enríquez,1088,1,2281095776,,,Fijo,19.54623,-96.92551,2010-07,72251
124457,9042429,VENTA DE PIZZAS THE PIZZA PLACE,,722517,"Restaurantes con servicio de preparación de pizzas, hamburguesas, hot dogs y pollos rostizados para llevar",6 a 10 personas,AVENIDA,RAFAEL MURILLO VIDAL,PRIVADA,RIO JAMAPA,PRIVADA,RIO PANTEPEC,CALLE,ÁNGEL CARVAJAL BERNAL,36,,,NA,NA,,COLONIA,DEL VALLE,,,,91069,30,VERACRUZ DE IGNACIO DE LA LLAVE,87,Xalapa,1,Xalapa-Enríquez,1336,18,,,,Fijo,19.52146,-96.9083,2019-11,72251
124820,4272904,VENTA DE TACOS,,722514,Restaurantes con servicio de preparación de tacos y tortas,0 a 5 personas,CALLE,GOBERNADOR ANTONIO NAVA,CALLE,PIPILA,CALLE,ENCANTO,CALLE,JORGE SERDÁN NORTE,0,SN,,NA,0,,COLONIA,MIRADOR,,,,91170,30,VERACRUZ DE IGNACIO DE LA LLAVE,87,Xalapa,1,Xalapa-Enríquez,94,10,2281531076,,,Semifijo,19.54157,-96.90999,2014-12,72251
