ord,id,nom_estab,raz_social,codigo_act,nombre_act,per_ocu,tipo_vial,nom_vial,tipo_v_e_1,nom_v_e_1,tipo_v_e_2,nom_v_e_2,tipo_v_e_3,nom_v_e_3,numero_ext,letra_ext,edificio,edificio_e,numero_int,letra_int,tipo_asent,nomb_asent,tipoCenCom,nom_CenCom,num_local,cod_postal,cve_ent,entidad,cve_mun,municipio,cve_loc,localidad,ageb,manzana,telefono,correoelec,www,tipoUniEco,latitud,longitud,fecha_alta,subrama
226,6416936,EMPACADORA DE CARNES DE FRESNILLO,EMPACADORA DE CARNES DE FRESNILLO SA DE CV,311612,"Corte y empacado de carne de ganado, aves y otros animales comestibles",101 a 250 personas,AVENIDA,PLATEROS,CALLE,CALLE DEL ORO,BOULEVARD,PASEO DEL MINERAL,CALLE,JUAN DE TOLOSA,480,,,NA,0,,COLONIA,CENTRO,,,,99000,32,ZACATECAS,10,Fresnillo,1,Fresnillo,1931,45,NA,PVERA@ECFRES.COM,,Fijo,23.18595136,-102.8637062,2010-07,31161
234,7377064,FABRICA DE DULCES,,311340,"Elaboración de dulces, chicles y productos de confitería que no sean de chocolate",0 a 5 personas,AVENIDA,FELIPE MONREAL,CALLE,VALENCIANA,CALLE,21 DE MARZO,CALLE,21 DE MARZO,0,SN,,NA,0,,LOCALIDAD,PLATEROS,,,,99158,32,ZACATECAS,10,Fresnillo,165,Plateros,1185,11,NA,,,Fijo,23.23262897,-102.8441833,2019-11,31134
238,7316644,FABRICACION DE GELATINAS,,311993,Elaboración de alimentos frescos para consumo inmediato,0 a 5 personas,CALLE,ROBERTO FIERRO,CALLE,PASCUAL OROZCO,CALLE,NINGUNO,PRIVADA,PASCUAL OROZCO,412,,,NA,0,,COLONIA,FRANCISCO VILLA,,,,99054,32,ZACATECAS,10,Fresnillo,1,Fresnillo,1151,30,NA,,,Fijo,23.17702022,-102.8512555,2019-11,31199
246,8462812,FRIJORIFICO MULTIJUGOS,MULTIJUGOS SA DE CV,311422,Conservación de frutas y verduras por procesos distintos a la congelación y la deshidratación,0 a 5 personas,CALLE,COSTA RICA,CALLE,ENRIQUE ESTRADA,CALLE,COLOMBIA,CALLE,REPÚBLICA DE CUBA,NA,SN,,NA,NA,,COLONIA,LAS AMERICAS,,,,99030,32,ZACATECAS,10,Fresnillo,1,Fresnillo,882,45,NA,,,Fijo,23.17269798,-102.8902392,2019-11,31142
304,4598245,HELADOS VICTORIA,,311520,Elaboración de helados y paletas,0 a 5 personas,CALLE,CERRO DEL GRILLO,CALLE,CERRO HORNITOS,CALLEJON,CERRO CRESON,CALLE,CERRO ENCINILLO,124,,,NA,NA,,COLONIA,LOMAS DE LA PIMIENTA,,,,98053,32,ZACATECAS,56,Zacatecas,1,Zacatecas,067A,4,NA,HELADOSVICTORIA_SAP@HOTMAIL.COM,,Fijo,22.76505551,-102.5863563,2010-07,31152
446,4629382,MOLINO SIN NOMBRE,,311830,Elaboración de tortillas de maíz y molienda de nixtamal,0 a 5 personas,CALLE,RIO AGUANAVAL,CALLE,JUAN DE LA BARRERA,CALLE,11 DE FEBRERO,CALLE,ZACATECAS,106,,,NA,NA,,LOCALIDAD,SAN JOSE DE LOURDES,,,,99189,32,ZACATECAS,10,Fresnillo,210,San José de Lourdes,1043,11,NA,,,Fijo,23.28169703,-103.0057362,2014-12,31183
500,7941291,PALETERIA ALASKA,,311520,Elaboración de helados y paletas,0 a 5 personas,CALLE,CALLE DEL ARROYO,CALLE,HOMBRES ILUSTRES,CALZADA,CALZADA DEL PEREGRINO,CALLE,PEDRO MORENO,0,SN,,NA,0,,LOCALIDAD,PLATEROS,,,,99158,32,ZACATECAS,10,Fresnillo,165,Plateros,2075,11,NA,,,Fijo,23.22781269,-102.8411043,2019-11,31152
656,8130975,PANADERIA DON JUAN,,311812,Panificación tradicional,0 a 5 personas,CALLE,CALLE DEL CERRILLO,CALZADA,OBRERO MUNDIAL,CALLE,EMILIANO ZAPATA,CALLE,EMILIANO ZAPATA,711,,,NA,NA,,COLONIA,H. AYUNTAMIENTO,,,,98078,32,ZACATECAS,56,Zacatecas,1,Zacatecas,699,12,4924921702,,,Fijo,22.76049136,-102.5692137,2019-11,31181
679,4614585,PANADERIA EL CARACOL,,311812,Panificación tradicional,0 a 5 personas,CALLE,CAMILO TORRES,CALLE,RUBEN JARAMILLO,CALLE,SALVADOR ALLENDE,CALLE,GENARO VÁZQUEZ,32,SN,,NA,0,,COLONIA,EMILIANO ZAPATA,,,,99010,32,ZACATECAS,10,Fresnillo,1,Fresnillo,1908,5,8683059096,,,Fijo,23.19074566,-102.8659935,2010-07,31181
1020,9361329,PASTELERIA LA-TIN,,311812,Panificación tradicional,0 a 5 personas,AVENIDA,PLATEROS,CALLE,MOMAX,CALLE,APOZOL,CALLE,VETAGRANDE,1004,,,NA,NA,,COLONIA,SOLIDARIDAD,,,,99010,32,ZACATECAS,10,Fresnillo,1,Fresnillo,1857,32,NA,,,Fijo,23.19585005,-102.8593512,2021-05,31181
1186,6730882,RED INDUSTRIAL PARA NUTRIR A MEXICO,RED INDUSTRIAL PARA NUTRIR A MÉXICO SA DE CV,311820,Elaboración de galletas y pastas para sopa,0 a 5 personas,CALLE,CALLE DE LAS MARGARITAS,CALLE,EL RESBALON,AVENIDA,JAZMIN,CALLE,NINGUNO,104,,,NA,0,,COLONIA,LA ESCONDIDA,,,,98058,32,ZACATECAS,56,Zacatecas,1,Zacatecas,1644,30,NA,NUTRIMEXICO_ZACATECAS@HOTMAIL.COM,,Fijo,22.77362129,-102.625245,2016-10,31182
1188,8395723,REPOSTERIA DOÑA MAGGY,,311812,Panificación tradicional,0 a 5 personas,CALLE,PETROLEOS MEXICANOS,PRIVADA,PRIVADA DE CIUDAD MADERO,CALLE,CIUDAD MADERO,PRIVADA,PRIVADA DE CIUDAD MADERO,317,,,NA,NA,,COLONIA,LAZARO CARDENAS,,,,98040,32,ZACATECAS,56,Zacatecas,1,Zacatecas,82,44,4921240517,,,Fijo,22.77835315,-102.5835554,2019-11,31181
1198,4624975,REPOSTERIA SUSY,,311812,Panificación tradicional,0 a 5 personas,CALLE,FRAY SERVANDO TERESA DE MIER,AVENIDA,PLATEROS,CALLE,FRAY SERVANDO TERESA DE MIER,CALLE,PÁNFILO NATERA,125,,,NA,NA,,COLONIA,CENTRO,,,,99000,32,ZACATECAS,10,Fresnillo,1,Fresnillo,051A,30,NA,,,Fijo,23.18158402,-102.8664485,2014-12,31181
1258,4611436,TORTILLAS DE HARINA DE LUPITA,DE LUPITA TORTILLAS DE HARINA SA DE CV,311813,Elaboración de tortillas de harina de trigo de forma tradicional,31 a 50 personas,CALLE,JUAN DE TOLOSA,BOULEVARD,HOMBRES ILUSTRES,CALLE,DOCTOR MORA,CALLE,SEGUNDA DE JUAN DE TOLOSA,624,,,NA,NA,,COLONIA,INFONAVIT,,,,99020,32,ZACATECAS,10,Fresnillo,1,Fresnillo,1931,49,4939321456,TORTILLAS_DE_LUPIT@HOTMAIL.COM,,Fijo,23.18356362,-102.8679515,2010-07,31181
1298,7453712,TORTILLERIA,,311830,Elaboración de tortillas de maíz y molienda de nixtamal,0 a 5 personas,CALLE,FRANCISCO VILLA,CALLE,VENUSTIANO CARRANZA,CALLE,LUIS MOYA,CALLE,DELICIAS,11,SN,,NA,0,,LOCALIDAD,LAZARO CARDENAS,,,,99188,32,ZACATECAS,10,Fresnillo,183,Lázaro Cárdenas (Rancho Grande),2094,14,4931114541,,,Fijo,23.45360871,-102.961777,2019-11,31183
1431,4614339,TORTILLERIA DE LA LUZ,,311830,Elaboración de tortillas de maíz y molienda de nixtamal,0 a 5 personas,CALLE,MACLOVIO HERRERA,AVENIDA,FRANCISCO VILLA,AVENIDA,TOMA DE ZACATECAS,CALLE,LOS DORADOS,NA,SN,,NA,NA,,COLONIA,FRANCISCO VILLA,,,,99054,32,ZACATECAS,10,Fresnillo,1,Fresnillo,2018,9,NA,,,Fijo,23.1730421,-102.8491844,2010-07,31183
1593,4600179,TORTILLERIA JUAN JUANITO,,311830,Elaboración de tortillas de maíz y molienda de nixtamal,0 a 5 personas,CALLE,BOLIVIA,CALLE,URUGUAY,CALLE,PARAGUAY,CALLE,BRASIL,502,SN,,NA,NA,,COLONIA,LAS AMERICAS,,,,98057,32,ZACATECAS,56,Zacatecas,1,Zacatecas,839,9,NA,,,Fijo,22.7688793,-102.603324,2010-07,31183
1661,4653661,TORTILLERIA LA ESTACION,,311830,Elaboración de tortillas de maíz y molienda de nixtamal,0 a 5 personas,BOULEVARD,SAN JOSE,CALLE,NINGUNO,BOULEVARD,CARRETERA FRESNILLO-ESTACION SAN JOSE,CALLE,20 DE NOVIEMBRE,76,A,,NA,0,,LOCALIDAD,ESTACION SAN JOSE,,,,99150,32,ZACATECAS,10,Fresnillo,106,Estación San José,2554,18,NA,,,Fijo,23.18914295,-102.7882292,2014-12,31183
1712,4618180,TORTILLERIA LA MISERICORDIA,,311830,Elaboración de tortillas de maíz y molienda de nixtamal,0 a 5 personas,CALLE,CUAUHTEMOC,CALLE,LEANDRO VALLE,CALLE,VICENTE GUERRERO,CALLE,LEANDRO VALLE,14,,,NA,NA,,COLONIA,RIO FLORIDO,,,,99170,32,ZACATECAS,10,Fresnillo,189,Río Florido,2732,1,NA,,,Fijo,23.34244027,-102.9918145,2010-07,31183
1917,4618432,TORTILLERIA RAMOS,,311830,Elaboración de tortillas de maíz y molienda de nixtamal,0 a 5 personas,CALLE,PINO SUAREZ,CALLE,GONZALEZ ORTEGA,CALLE,JUSTO SIERRA,PRIVADA,SAN ÁNGEL,NA,SN,,NA,NA,,LOCALIDAD,SAN JOSE DE LOURDES,,,,99189,32,ZACATECAS,10,Fresnillo,210,San José de Lourdes,1043,12,NA,,,Fijo,23.27972744,-103.0063595,2010-07,31183
2063,9128523,TORTILLERIA Y CARNICERIA REYES,,311830,Elaboración de tortillas de maíz y molienda de nixtamal,11 a 30 personas,CALLE,DIEGO RIVERA,CALLE,CARLOS MERIDA,CALLE,ARTURO GORDON,CALLE,JULIO ESCAMEZ GERANTOS,30,A,,NA,NA,,FRACCIONAMIENTO,MURALISTA,,,,99054,32,ZACATECAS,10,Fresnillo,1,Fresnillo,2978,27,NA,,,Fijo,23.16492927,-102.8402028,2019-11,31183
2081,8462738,TOSTADA DIVINAS,,311910,Elaboración de botanas,0 a 5 personas,CALLE,CALLE DE LAS AZUCENAS,CALLE,CALLE DE LAS CAMELIAS,CALLE,CALPULALPAN,CALLE,LIRIOS,615,,,NA,NA,,COLONIA,FELIPE ANGELES,,,,99050,32,ZACATECAS,10,Fresnillo,1,Fresnillo,878,26,NA,,,Fijo,23.18296506,-102.8576108,2019-11,31191
2125,8633851,VENTA DE GORDITAS DE TRIGO SIN NOMBRE,,311812,Panificación tradicional,0 a 5 personas,CALLE,HENRY HERTZ,CALLE,GENARO CODINA,CALLE,TOMAS ALVA EDISON,CALLE,BENJAMÍN FRANKLIN,NA,SN,CENTRAL DE ABASTO,1,NA,,COLONIA,MECANICOS,CENTRAL DE ABASTO,MERCADO DE ABASTOS TIANGUIS SABATINO,SN,98057,32,ZACATECAS,56,Zacatecas,1,Zacatecas,627,40,NA,,,Fijo,22.77183589,-102.5979097,2019-11,31181
2158,4625661,VENTA DE QUESOS,,311513,Elaboración de derivados y fermentos lácteos,0 a 5 personas,CALLE,RIO PANUCO,CALLE,RIO CHAPALA,PRIVADA,RIO PANUCO,CALLE,RÍO YAQUI,404,B,,NA,NA,,COLONIA,DEL VALLE,,,,99088,32,ZACATECAS,10,Fresnillo,1,Fresnillo,1965,4,NA,,,Fijo,23.16928593,-102.8984122,2014-12,31151
2184,6468966,1 ZAPATA SPR DE RL,1 ZAPATA SPR DE RL,431150,"Comercio al por mayor de semillas y granos alimenticios, especias y chiles secos",0 a 5 personas,CALLE,5 DE MAYO,CALLE,5 DE FEBRERO,CALLE,20 DE NOVIEMBRE,CALLE,NINGUNO,3,,,NA,NA,,LOCALIDAD,MILPILLAS DE LA SIERRA,,,,98180,32,ZACATECAS,10,Fresnillo,348,Milpillas de la Sierra,012A,36,NA,GRIS.1105@HOTMAIL.COM,,Fijo,23.506077,-102.748398,2014-12,43115
2318,4614590,COOPERATIVA ESCOLAR TURNO MATUTINO,,431110,Comercio al por mayor de abarrotes,0 a 5 personas,OTRO (ESPECIFIQUE),CAMILO TORRES,OTRO (ESPECIFIQUE),GALILEO,OTRO (ESPECIFIQUE),MÁRTIRES DE TLATELOLCO,OTRO (ESPECIFIQUE),UNIVERSIDAD,27,,,NA,0,,COLONIA,EMILIANO ZAPATA,,,,99010,32,ZACATECAS,10,Fresnillo,1,Fresnillo,1908,32,NA,,,Fijo,23.19083064,-102.8653165,2010-07,43111
2321,6233945,DESARROLLO DE PRODUCTOS ALIMENTICIOS LA INTEGRAL SA DE CV,DESARROLLO DE PRODUCTOS ALIMENTICIOS LA INTEGRAL SA DE CV,431191,Comercio al por mayor de pan y pasteles,6 a 10 personas,CALLE,LAGO LA ENCANTADA,CALLE,CEDRO,CALLE,CERRO DE LA VIRGEN,CALLE,CALLE DEL ÁTOMO,602,,,NA,15,,COLONIA,CONQUISTADORES,,,,98090,32,ZACATECAS,56,Zacatecas,1,Zacatecas,1131,10,NA,CONTADOR@LAINTEGRAL.COM.MX,WWW.LAINTEGRAL.COM.MX,Fijo,22.75622928,-102.5757681,2011-03,43119
2380,8507134,LOCAL DE VENTA DE HUEVO SIN NOMBRE,,431140,Comercio al por mayor de huevo,0 a 5 personas,CALLE,HENRY HERTZ,CALLE,GENARO CODINA,CALLE,TOMAS ALVA EDISON,PRIVADA,NINGUNO,NA,SN,CENTRAL DE ABASTO,1,NA,,COLONIA,MECANICOS,CENTRAL DE ABASTO,MERCADO DE ABASTOS TIANGUIS SABATINO,SN,98057,32,ZACATECAS,56,Zacatecas,1,Zacatecas,627,40,4922437656,,,Fijo,22.77183589,-102.5979097,2019-11,43114
2419,6280698,PROGRAMA DE ABASTO SOCIAL ZACATECAS,LICONSA SA DE CV,431160,Comercio al por mayor de leche y otros productos lácteos,51 a 100 personas,CALLE,BENITO LÓPEZ BERNAL,CALLE,QUEBRADILLA,CALLE,CHEPINQUE,AVENIDA,AVENIDA DE LA CONSTITUCIÓN,105,,,NA,0,,COLONIA,COLONIA LOMAS DE LA SOLEDAD,,,,98040,32,ZACATECAS,56,Zacatecas,1,Zacatecas,1061,25,NA,,,Fijo,22.77443415,-102.5796085,2010-07,43116
2440,4598016,SANDOVAL RINCON PLATANERO,,431130,Comercio al por mayor de frutas y verduras frescas,11 a 30 personas,CALLE,TOMAS ALVA EDISON,CALLE,BENJAMIN FRANKLIN,CALLE,NINGUNO,CALLE,MERCADO DE ABASTOS,4,,,NA,0,4,MANZANA,MERCADO DE ABASTOS,,,,98056,32,ZACATECAS,56,Zacatecas,1,Zacatecas,627,34,4929248442,SANDOVALPLATANERS@HOTMAIL.COM.MX,,Fijo,22.77171005,-102.5975218,2010-07,43113
2448,8634192,SUPAN,,431180,Comercio al por mayor de dulces y materias primas para repostería,0 a 5 personas,AVENIDA,NEZAHUALCOYOTL,CALLE,FRANCISCO GARCIA SALINAS,CALLE,ALEJANDRO VOLTA,CIRCUITO,ENZO FERRARI,314,G,,NA,0,,COLONIA,CNOP,,,,98053,32,ZACATECAS,56,Zacatecas,1,Zacatecas,650,28,NA,,,Fijo,22.77098843,-102.5928814,2019-11,43118
2449,4598685,SUPER CARNICERIA FABY,,431121,Comercio al por mayor de carnes rojas,6 a 10 personas,CALLE,HENRY HERTZ,CALLE,GENARO CODINA,CALLE,TOMAS ALVA EDISON,PRIVADA,NINGUNO,NA,SN,CENTRAL DE ABASTO,1,NA,,COLONIA,MECANICOS,CENTRAL DE ABASTO,MERCADO DE ABASTOS TIANGUIS SABATINO,70 Y 69,98057,32,ZACATECAS,56,Zacatecas,1,Zacatecas,627,40,NA,,,Fijo,22.77183589,-102.5979097,2010-07,43112
4091,4614884,ABARROTES EL MOME,,461110,"Comercio al por menor en tiendas de abarrotes, ultramarinos y misceláneas",0 a 5 personas,CALLE,CALLE DE LAS MORAS,CALLE,CALLE DE LOS CASTAÑOS,CALLE,CALLE DE LAS JACARANDAS,CALLE,CALLE DE LOS PINOS,313,,,NA,NA,,COLONIA,Arboledas,,,,99059,32,ZACATECAS,10,Fresnillo,1,Fresnillo,1861,3,NA,,,Fijo,23.19042023,-102.8536359,2010-07,46111
4153,4614240,ABARROTES EL PROFE,,461110,"Comercio al por menor en tiendas de abarrotes, ultramarinos y misceláneas",0 a 5 personas,CALLE,GREGORIO DE LA FUENTE,CALLE,MATEO GALLEGOS,CALLE,DIEGO RIVERA,CALLE,GLADIADORES DE LA PALABRA,22,,,NA,NA,,FRACCIONAMIENTO,ABEL DAVILA,,,,99057,32,ZACATECAS,10,Fresnillo,1,Fresnillo,2978,16,NA,,,Fijo,23.16473658,-102.8384396,2010-07,46111
4242,4617119,ABARROTES EL TREBOL,,461110,"Comercio al por menor en tiendas de abarrotes, ultramarinos y misceláneas",0 a 5 personas,CALLE,IGNACIO ZARAGOZA,CALLE,JOSE MARIA MORELOS,CALLE,IGNACIO LOPEZ RAYON,CALLE,INDEPENDENCIA,425,,,NA,0,,COLONIA,MIGUEL HIDALGO,,,,99088,32,ZACATECAS,10,Fresnillo,1,Fresnillo,2889,17,4931373705,,,Fijo,23.17565277,-102.9023876,2010-07,46111
4556,7453704,ABARROTES GEMA,,461110,"Comercio al por menor en tiendas de abarrotes, ultramarinos y misceláneas",0 a 5 personas,CALLE,ROSAS MORENO,CALLE,CUAUHTEMOC,CALLE,GOMEZ FARIAS,CALLE,LEANDRO VALLE,7,,,NA,0,,COLONIA,RIO FLORIDO,,,,99170,32,ZACATECAS,10,Fresnillo,189,Río Florido,2732,9,NA,,,Fijo,23.34467371,-102.9919285,2019-11,46111
6249,8507197,ABARROTES MOISÉS,,461110,"Comercio al por menor en tiendas de abarrotes, ultramarinos y misceláneas",0 a 5 personas,CALLE,LEGALIDAD,CALLE,RESPETO,CALLE,VALORES DE LA DEMOCRACIA,CALLE,IGUALDAD,116,,,NA,0,,COLONIA,LAS FLORES,,,,98087,32,ZACATECAS,56,Zacatecas,1,Zacatecas,1697,3,NA,,,Fijo,22.75534808,-102.6098283,2019-11,46111
7352,4618485,ABARROTES SIN NOMBRE,,461110,"Comercio al por menor en tiendas de abarrotes, ultramarinos y misceláneas",0 a 5 personas,AVENIDA,JOSEFA ORTIZ DE DOMINGUEZ,CALLE,VENUSTIANO CARRANZA,CALLE,VICENTE GUERRERO,AVENIDA,BENITO JUÁREZ,6,,,NA,0,,LOCALIDAD,MIGUEL HIDALGO,,,,99000,32,ZACATECAS,10,Fresnillo,135,Miguel Hidalgo (Hidalgo),2569,24,NA,,,Fijo,23.07925768,-102.7245343,2010-07,46111
7567,4613477,ABARROTES TORRES,,461110,"Comercio al por menor en tiendas de abarrotes, ultramarinos y misceláneas",0 a 5 personas,CALLE,JUANA GALLO,CALLE,JOAQUIN ARRIETA,CALLE,DOROTEO ARANGO,PROLONGACION,MANUEL M. PONCE,0,SN,,NA,0,,COLONIA,FRANCISCO VILLA,,,,99054,32,ZACATECAS,10,Fresnillo,1,Fresnillo,986,38,NA,,,Fijo,23.17469431,-102.8525373,2010-07,46111
7805,4612319,ABARROTES Y PAPELERIA D PEPE,,461110,"Comercio al por menor en tiendas de abarrotes, ultramarinos y misceláneas",0 a 5 personas,CALLE,VETA DE COBRE,CALLE,VETA DE ALUMINIO,CALLE,VETA DE PLATA,CALLE,VETA DE ESTAÑO,521,,,NA,NA,,COLONIA,LIC ROQUE ESTRADA,,,,99080,32,ZACATECAS,10,Fresnillo,1,Fresnillo,2520,9,NA,,,Fijo,23.16851959,-102.8867423,2010-07,46111
8051,6713598,BODEGA AURRERA ENRIQUE ESTRADA 3285,NUEVA WAL MART DE MEXICO S DE RL DE CV,462111,Comercio al por menor en supermercados,51 a 100 personas,CALLE,ENRIQUE ESTRADA,CALLE,HONDURAS,CALLE,REPUBLICA DEL BRASIL,CALLE,REPUBLICA DEL PERÚ,702,,,NA,NA,,COLONIA,FOVISSSTE,,,,99080,32,ZACATECAS,10,Fresnillo,1,Fresnillo,882,4,NA,ATENCIONACLIENTES@WALMART.COM,WWW.WALMART.COM.MX,Fijo,23.1726849,-102.8880447,2016-01,46211
8080,8130856,BODEGA DE CARNICERIA LAURY,,461121,Comercio al por menor de carnes rojas,0 a 5 personas,CALLE,HENRY HERTZ,CALLE,GENARO CODINA,CALLE,TOMAS ALVA EDISON,CALLE,BENJAMÍN FRANKLIN,NA,SN,CENTRAL DE ABASTO,1,NA,,COLONIA,MECANICOS,CENTRAL DE ABASTO,MERCADO DE ABASTOS TIANGUIS SABATINO,SN,98057,32,ZACATECAS,56,Zacatecas,1,Zacatecas,627,40,NA,,,Fijo,22.77183589,-102.5979097,2019-11,46112
8088,8454242,BODEGA DE CHILES SECOS SIN NIMBRE,,461140,"Comercio al por menor de semillas y granos alimenticios, especias y chiles secos",0 a 5 personas,CALLE,JOSE LOPEZ MARTINEZ,CALLE,JARDIN DE NIÑOS,CALLE,NINGUNO,CALZADA,CALZADA DEL PEREGRINO,147,,,NA,NA,,LOCALIDAD,PLATEROS,,,,99158,32,ZACATECAS,10,Fresnillo,165,Plateros,2075,51,NA,,,Fijo,23.22574913,-102.8406328,2019-11,46114
8227,4596489,CARNES SELECTAS,,461121,Comercio al por menor de carnes rojas,0 a 5 personas,CALLE,FILARMONICOS,CALLE,SEGUNDA DEL SEMINARIO,CALLE,PROGRESO,CALLE,LEONA VICARIO,539,,,NA,0,,COLONIA,ZONA CENTRO,,,,98000,32,ZACATECAS,56,Zacatecas,1,Zacatecas,576,25,NA,,,Fijo,22.78167736,-102.5713093,2010-07,46112
8793,4598450,CARNICERIA LA VAQUITA,,461121,Comercio al por menor de carnes rojas,0 a 5 personas,CALLE,CRUCERO LAURO G. CALOCA,CALLE,ELECTRIFICACION,CALLE,ELECTRICISTAS,CALLE,SEGUNDA REGIONAL,302,,,NA,NA,,COLONIA,BUENA VISTA,,,,98070,32,ZACATECAS,56,Zacatecas,1,Zacatecas,684,23,NA,,,Fijo,22.76181864,-102.5757169,2010-07,46112
9130,4615596,CARNICERIA Y ABARROTES CAMACHO 3,,461121,Comercio al por menor de carnes rojas,0 a 5 personas,CALLE,JOSE MARIA MORELOS,CALLE,PINO SUAREZ,CALLE,ÁLVARO OBREGON,CALLE,VALENCIANA,17,,,NA,0,,LOCALIDAD,PLATEROS,,,,99158,32,ZACATECAS,10,Fresnillo,165,Plateros,2075,27,NA,,,Fijo,23.23066213,-102.8396681,2010-07,46112
9286,7453999,"COMERCIO AL POR MENOR DE SEMILLAS Y GRANOS ALIMENTICIOS, ESPECIAS Y CHILES SECOS",SECADORA DE CHILE ,461140,"Comercio al por menor de semillas y granos alimenticios, especias y chiles secos",6 a 10 personas,BOULEVARD,NINGUNO,CALLE,NINGUNO,CALLE,NINGUNO,CALLE,NINGUNO,0,SN,,NA,0,,LOCALIDAD,LAZARO CARDENAS,,,,99188,32,ZACATECAS,10,Fresnillo,183,Lázaro Cárdenas (Rancho Grande),3586,15,4931077165,,,Fijo,23.44283979,-102.9594724,2019-11,46114
9373,8648274,COMPRA VENTA DE FRIJOL ESCOBEDO,,461140,"Comercio al por menor de semillas y granos alimenticios, especias y chiles secos",6 a 10 personas,AVENIDA,ENRIQUE ESTRADA,CALLE,CRISTOBAL COLON,CALLE,HACIENDA DE CORRALEJO,CALLE,DOLORES,1507,,,NA,NA,,COLONIA,MIGUEL HIDALGO,,,,99088,32,ZACATECAS,10,Fresnillo,1,Fresnillo,882,21,NA,,,Fijo,23.17272156,-102.8957889,2019-11,46114
9448,8507085,CREMERIA BERUMEN,,461150,"Comercio al por menor de leche, otros productos lácteos y embutidos",0 a 5 personas,CALLE,HENRY HERTZ,CALLE,GENARO CODINA,CALLE,TOMAS ALVA EDISON,CALLE,BENJAMÍN FRANKLIN,NA,SN,CENTRAL DE ABASTO,1,NA,,COLONIA,MECANICOS,CENTRAL DE ABASTO,MERCADO DE ABASTOS TIANGUIS SABATINO,SN,98057,32,ZACATECAS,56,Zacatecas,1,Zacatecas,627,40,NA,,,Fijo,22.77183589,-102.5979097,2019-11,46115
9494,8507476,CREMERIA LA ECONOMICA,,461150,"Comercio al por menor de leche, otros productos lácteos y embutidos",0 a 5 personas,CALZADA,OBRERO MUNDIAL,CALLE,J. TRINIDAD ORTIZ,CALLE,JOSE MARIA RODRIGUEZ,CALLE,FERNANDO AMILPA,1004,,,NA,NA,,COLONIA,ALMA OBRERA,,,,98090,32,ZACATECAS,56,Zacatecas,1,Zacatecas,699,33,4921012327,,,Fijo,22.75950776,-102.5675214,2019-11,46115
9542,4594358,CREMERIA RODRIGUEZ,,461150,"Comercio al por menor de leche, otros productos lácteos y embutidos",0 a 5 personas,CALLE,ARROYO DE LA PLATA,CALLE,ALDAMA,CALLE,GARCIA DE LA CADENA,CALLE,INDEPENDENCIA,0,SN,MERCADO PUBLICO,12,0,,COLONIA,ZONA CENTRO,MERCADO PUBLICO,MERCADO ARROYO DE LA PLATA,2,98000,32,ZACATECAS,56,Zacatecas,1,Zacatecas,114,20,NA,,,Fijo,22.77119988,-102.572578,2010-07,46115
9556,8634563,CREMERIA SIN NOMBRE,,461150,"Comercio al por menor de leche, otros productos lácteos y embutidos",0 a 5 personas,CALLE,HENRY HERTZ,CALLE,GENARO CODINA,CALLE,TOMAS ALVA EDISON,CALLE,BENJAMÍN FRANKLIN,NA,SN,CENTRAL DE ABASTO,1,NA,,COLONIA,MECANICOS,CENTRAL DE ABASTO,MERCADO DE ABASTOS TIANGUIS SABATINO,SN,98057,32,ZACATECAS,56,Zacatecas,1,Zacatecas,627,40,NA,,,Fijo,22.77183589,-102.5979097,2019-11,46115
9593,7080374,DELITALY,,461170,Comercio al por menor de paletas de hielo y helados,0 a 5 personas,AVENIDA,MONTES APALACHES,AVENIDA,APALACHES,AVENIDA,APALACHES,CALLE,MONTE ATLAS,336,B,,NA,NA,,COLONIA,COLINAS DEL PADRE CUARTA SECCION,,,,98085,32,ZACATECAS,56,Zacatecas,1,Zacatecas,1610,40,NA,,,Fijo,22.74453762,-102.5950575,2019-11,46117
9904,4631441,DULCES LA CAXCANA,,461160,Comercio al por menor de dulces y materias primas para repostería,0 a 5 personas,AVENIDA,HIDALGO,CALLE,GOYTIA,CALLE,PLAZUELA CANDELARIO HUIZAR,CALLE,TACUBA,NA,SN,,NA,NA,,COLONIA,ZONA CENTRO,,,,98000,32,ZACATECAS,56,Zacatecas,1,Zacatecas,114,46,NA,,,Fijo,22.77521813,-102.5727933,2014-12,46116
10066,4597056,EXPENDIO BIMBO,,461190,Comercio al por menor de otros alimentos,6 a 10 personas,AVENIDA,JUAREZ,CALLEJON,JOSEFA ORTIZ DE DOMINGUEZ,AVENIDA,GONZALEZ ORTEGA,CALLE,SAN ANTONIO,115,,,NA,NA,,COLONIA,ZONA CENTRO,,,,98000,32,ZACATECAS,56,Zacatecas,1,Zacatecas,010A,35,NA,,,Fijo,22.7721839,-102.5750808,2010-07,46119
10081,7941599,EXPENDIO DE PAN BIMBO SIN NOMBRE,,461190,Comercio al por menor de otros alimentos,6 a 10 personas,CALLE,IGNACIO HIERRO,CALLE,ALAMEDA,CALLE,SUAVE PATRIA,CALLE,LUIS MOYA NORTE,106,B,,NA,NA,,COLONIA,CENTRO,,,,99000,32,ZACATECAS,10,Fresnillo,1,Fresnillo,967,24,NA,,,Fijo,23.17555693,-102.866969,2019-11,46119
10108,4626153,EXTRA,EXTRA ,462112,Comercio al por menor en minisupers,6 a 10 personas,CARRETERA,PANAMERICANA,CALLE,NINGUNO,CALLE,NINGUNO,CALLE,NINGUNO,NA,SN,,NA,NA,,NINGUNO,CARRETERA FEDERAL 45 KILOMETRO 56,,,,99095,32,ZACATECAS,10,Fresnillo,1,Fresnillo,350A,33,NA,,,Fijo,23.15258029,-102.8483022,2014-12,46211
10126,6417409,EXTRA PLAZUELA,TIENDAS EXTRA SA DE CV,462112,Comercio al por menor en minisupers,6 a 10 personas,CALLE,Francisco Goytia,CALLE,PROGRESO,CALLE,PLAZUELA,CALLE,FRANCISCO GOITIA,1101,,,NA,0,,COLONIA,CENTRO,,,,98000,32,ZACATECAS,56,Zacatecas,1,Zacatecas,576,38,NA,,WWW.CIRCLEK.COM.MX,Fijo,22.78174958,-102.5710545,2010-07,46211
10130,6417410,EXTRA TACUBA 1019,TIENDAS EXTRA SA DE CV,462112,Comercio al por menor en minisupers,6 a 10 personas,CALLE,Tacuba,OTRO (ESPECIFIQUE),Callejón de Tenorio,CALLE,Aguascalientes,CALLE,Primero de Mayo,114,,,NA,0,,COLONIA,CENTRO,,,,98800,32,ZACATECAS,56,Zacatecas,1,Zacatecas,1076,11,NA,,WWW.CIRCLEK.COM.MX,Fijo,22.77348479,-102.572733,2010-07,46211
10143,7316487,FOMIHOUSE,,461160,Comercio al por menor de dulces y materias primas para repostería,0 a 5 personas,CALLE,ALVARO OBREGON SUR,CALLE,LIBERTAD,AVENIDA,GARCIA SALINAS,CALLE,ANALCO,231,B,,NA,NA,,COLONIA,CENTRO,,,,99000,32,ZACATECAS,10,Fresnillo,1,Fresnillo,967,18,4934685661,,,Fijo,23.17254393,-102.8683655,2019-11,46116
10167,4615277,FRUTAL DE RODRIGUEZ,,461130,Comercio al por menor de frutas y verduras frescas,0 a 5 personas,CALLE,HENRY HERTZ,CALLE,GENARO CODINA,CALLE,TOMAS ALVA EDISON,CALLE,BENJAMÍN FRANKLIN,0,SN,CENTRAL DE ABASTO,1,NA,,COLONIA,MECANICOS,CENTRAL DE ABASTO,MERCADO DE ABASTOS TIANGUIS SABATINO,LD 23,98057,32,ZACATECAS,56,Zacatecas,1,Zacatecas,627,40,NA,,,Fijo,22.77183589,-102.5979097,2014-12,46113
10175,9154868,FRUTAS VERDURAS QUESO LA NEGRITA,,461130,Comercio al por menor de frutas y verduras frescas,0 a 5 personas,BOULEVARD,HOMBRES ILUSTRES,CALLE,TAMAULIPAS,CALLE,LAZARO CARDENAS,CALLE,EXCELSIOR,245,,,NA,NA,,COLONIA,PERIODISTAS,,,,99040,32,ZACATECAS,10,Fresnillo,1,Fresnillo,1950,6,NA,,,Fijo,23.18087295,-102.873572,2019-11,46113
10390,4627333,FRUTERIA EL BIGOTON,,461130,Comercio al por menor de frutas y verduras frescas,0 a 5 personas,BOULEVARD,DOCTOR J. JESUS VARELA RICO,CALLE,RIO NAZAS,AVENIDA,AVENIDA A LA FERIA,AVENIDA,CUAUHTÉMOC,NA,SN,CENTRAL DE ABASTO,1,1,,COLONIA,LINDAVISTA,CENTRAL DE ABASTO,MERCADO DE ABASTOS FRESNILLO ZACATECAS,1,99039,32,ZACATECAS,10,Fresnillo,1,Fresnillo,2840,1,4931133659,,,Fijo,23.18494646,-102.884684,2014-12,46113
10418,7447979,FRUTERIA EL REGUILETE,,461130,Comercio al por menor de frutas y verduras frescas,0 a 5 personas,CALLE,GONZALEZ ORTEGA,CALLE,LAZARO CARDENAS,CALLE,MORELOS,CALLE,LÓPEZ MATEOS,NA,SN,,NA,NA,,LOCALIDAD,SAN JOSE DE LOURDES,,,,99189,32,ZACATECAS,10,Fresnillo,210,San José de Lourdes,1062,15,4931006062,,,Fijo,23.27797343,-103.0072219,2019-11,46113
10431,4596509,FRUTERIA ESPARZA,,461130,Comercio al por menor de frutas y verduras frescas,0 a 5 personas,,SEGUNDA DE MATAMOROS,,SAN FRANCISCO,,ABASOLO,,SEGUNDA DE MATAMOROS,101,,,NA,NA,,,CENTRO,,,,NA,32,ZACATECAS,56,Zacatecas,1,Zacatecas,576,37,NA,,,Fijo,22.78167591,-102.5702901,2010-07,46113
10571,4611476,FRUTERIA MUÑOZ,,461130,Comercio al por menor de frutas y verduras frescas,0 a 5 personas,AVENIDA,ENRIQUE ESTRADA,CALLE,URUGUAY,CALLE,CALLE DEL PARQUE SUR,CALLE,LEONA VICARIO,NA,SN,MERCADO PUBLICO,1,NA,,COLONIA,FRACC REAL DE MINAS,MERCADO PUBLICO,MERCADO PONIENTE,SN,99030,32,ZACATECAS,10,Fresnillo,1,Fresnillo,539,6,NA,,,Fijo,23.17304614,-102.8824794,2010-07,46113
10578,4616313,FRUTERIA ORTEGA,,461130,Comercio al por menor de frutas y verduras frescas,6 a 10 personas,BOULEVARD,DOCTOR J. JESUS VARELA RICO,CALLE,RIO NAZAS,AVENIDA,AVENIDA A LA FERIA,AVENIDA,CUAUHTÉMOC,NA,SN,CENTRAL DE ABASTO,1,7,,COLONIA,LINDAVISTA,CENTRAL DE ABASTO,MERCADO DE ABASTOS FRESNILLO ZACATECAS,7,99039,32,ZACATECAS,10,Fresnillo,1,Fresnillo,2840,1,4939322645,,,Fijo,23.18494646,-102.884684,2010-07,46113
10626,8634625,FRUTERIA SIN NOMBRE,,461130,Comercio al por menor de frutas y verduras frescas,0 a 5 personas,CALLE,HENRY HERTZ,CALLE,GENARO CODINA,CALLE,TOMAS ALVA EDISON,CALLE,BENJAMÍN FRANKLIN,NA,SN,CENTRAL DE ABASTO,1,NA,,COLONIA,MECANICOS,CENTRAL DE ABASTO,MERCADO DE ABASTOS TIANGUIS SABATINO,SN,98057,32,ZACATECAS,56,Zacatecas,1,Zacatecas,627,40,NA,,,Fijo,22.77183589,-102.5979097,2019-11,46113
10678,4610485,FRUTERÍA SIN NOMBRE,,461130,Comercio al por menor de frutas y verduras frescas,0 a 5 personas,CALLE,CODO,CALLE,REFORMA,AVENIDA,JUAREZ,AVENIDA,JOSÉ MARÍA MORELOS NORTE,7,,,NA,NA,,COLONIA,CENTRO,,,,99000,32,ZACATECAS,10,Fresnillo,1,Fresnillo,505,24,NA,,,Fijo,23.17483681,-102.8720927,2010-07,46113
10732,4599863,FRUTERIA Y CREMERIA GEOVANA,,461150,"Comercio al por menor de leche, otros productos lácteos y embutidos",0 a 5 personas,CALLE,BEGONIAS,CALLE,CRISANTEMAS,AVENIDA,BEGONIAS,CALLE,ALCATRACES,28,,,NA,0,,COLONIA,FELIPE ANGELES,,,,98054,32,ZACATECAS,56,Zacatecas,1,Zacatecas,720,8,NA,,,Fijo,22.76086076,-102.5955348,2010-07,46115
10869,4594094,HIERBITAS MARY,,461130,Comercio al por menor de frutas y verduras frescas,0 a 5 personas,CALLE,ALDAMA,AVENIDA,JUAREZ,CALLE,PLAZUELA GENARO CODINA,CALLE,CALLE DEL TRÁFICO,306,,MERCADO PUBLICO,1,70,,COLONIA,ZONA CENTRO,MERCADO PUBLICO,MERCADO GENARO CODINA,70,98000,32,ZACATECAS,56,Zacatecas,1,Zacatecas,114,29,NA,,,Fijo,22.7722364,-102.5732648,2010-07,46113
11130,7332855,LOS RANCHEROS HERMANOS NARVAEZ,LOS RANCHEROS HERMANOS NARVAEZ ,461140,"Comercio al por menor de semillas y granos alimenticios, especias y chiles secos",0 a 5 personas,BOULEVARD,PASEO DEL MINERAL,CALLE,LOMA DE LA SANTA CRUZ,CALLE,LOMA SANTO DOMINGO,CALLE,SIERRA MADRE,0,SN,,NA,0,,COLONIA,LOMAS DE PLATEROS,,,,99011,32,ZACATECAS,10,Fresnillo,1,Fresnillo,1880,15,NA,,,Fijo,23.18895809,-102.8792387,2019-11,46114
11153,4626335,MARISCOS ISA DEL MAR,,461123,Comercio al por menor de pescados y mariscos,0 a 5 personas,CALLE,LUCIO BLANCO,AVENIDA,TOMA DE ZACATECAS,AVENIDA,FRANCISCO VILLA,CALLE,FRANCISCO I. MADERO,26,,,NA,NA,,COLONIA,VENUSTIANO CARRANZA,,,,99054,32,ZACATECAS,10,Fresnillo,1,Fresnillo,986,5,NA,,,Fijo,23.17400504,-102.8563749,2014-12,46112
11669,6416707,OXXO SUC 50QQV LUIS MOYA ZCL,CADENA COMERCIAL OXXO SA DE CV,462112,Comercio al por menor en minisupers,6 a 10 personas,CALZADA,LUIS MOYA,CALLE,5 DE MAYO,CALLE,WISTANO RUÍZ OROZCO,CALLE,FRANCISCO ALATORRE,902,A,,NA,NA,,COLONIA,JESUS GONZALEZ ORTEGA,,,,98089,32,ZACATECAS,56,Zacatecas,1,Zacatecas,754,21,NA,ATENCIONCLIENTES@OXXO.COM,WWW.OXXO.COM,Fijo,22.75642453,-102.592106,2013-07,46211
11722,6416824,OXXO SUC 50ZSA SIERRA A ZCL,CADENA COMERCIAL OXXO SA DE CV,462112,Comercio al por menor en minisupers,6 a 10 personas,CALLE,MIGUEL ALEMÁN,CALLE,SEGUNDA DE FRANCISCO GARCÍA SALINAS,CALLE,TRINIDAD GARCÍA DE LA CADENA,CALLE,CORTA,304,,,NA,NA,,COLONIA,SIERRA DE ALICA,,,,98050,32,ZACATECAS,56,Zacatecas,1,Zacatecas,148,22,NA,ATENCIONCLIENTES@OXXO.COM,WWW.OXXO.COM,Fijo,22.76864908,-102.5774811,2010-07,46211
11731,7377265,PALETAS ROSY,,461170,Comercio al por menor de paletas de hielo y helados,0 a 5 personas,CALLE,CALLE DE LOS LAURELES,CALLE,CALLE DEL HIERRO,CALLE,CALLE DEL COBRE,AVENIDA,AVENIDA DE LA PLATA,2,,,NA,0,,FRACCIONAMIENTO,REAL DE FRESNILLO,,,,99059,32,ZACATECAS,10,Fresnillo,1,Fresnillo,215A,2,NA,,,Fijo,23.19674732,-102.8547722,2019-11,46117
11865,4612215,PANADERIA SAN JOSE,,461190,Comercio al por menor de otros alimentos,0 a 5 personas,AVENIDA,ENRIQUE ESTRADA,CALLE,NEZAHUALCOYOTL,CALLE,XICOTENCATL,CALLE,FELIPE CARRILLO PUERTO,508,,,NA,NA,,COLONIA,ESPARZA,,,,99080,32,ZACATECAS,10,Fresnillo,1,Fresnillo,990,7,NA,,,Fijo,23.17301493,-102.8787925,2010-07,46119
12036,8859529,POLLERIA DON POLLO,,461122,Comercio al por menor de carne de aves,0 a 5 personas,AVENIDA,FRANCISCO VILLA,CALLE,GENERAL FELIX GALVAN,CALLE,FRANCISCO I. MADERO,CALLE,GENERAL FÉLIX GALVÁN,NA,SN,,NA,NA,,COLONIA,FRANCISCO VILLA,,,,99054,32,ZACATECAS,10,Fresnillo,1,Fresnillo,986,1,NA,,,Fijo,23.17242131,-102.8546817,2019-11,46112
12045,4631088,POLLERIA EL AGUILA,,461122,Comercio al por menor de carne de aves,0 a 5 personas,CALLE,RODRIGUEZ ELIAS,CALLE,CRUCERO SONORA,CALLE,GUILLERMO PRIETO,CALLE,SONORA,0,SN,,NA,0,,COLONIA,BELLAVISTA,,,,98080,32,ZACATECAS,56,Zacatecas,1,Zacatecas,074A,8,NA,,,Fijo,22.76210585,-102.5878653,2014-12,46112
12140,7080586,POLLERIA SIN NOMBRE,,461122,Comercio al por menor de carne de aves,0 a 5 personas,CALLE,HENRY HERTZ,CALLE,GENARO CODINA,CALLE,TOMAS ALVA EDISON,CALLE,BENJAMÍN FRANKLIN,NA,SN,CENTRAL DE ABASTO,1,NA,,COLONIA,MECANICOS,CENTRAL DE ABASTO,MERCADO DE ABASTOS TIANGUIS SABATINO,SN,98057,32,ZACATECAS,56,Zacatecas,1,Zacatecas,627,40,NA,,,Fijo,22.77183589,-102.5979097,2019-11,46112
12165,8507362,POLLO DE LECHE,,461122,Comercio al por menor de carne de aves,0 a 5 personas,AVENIDA,SIERRA MADRE,CALLE,BASURTO,AVENIDA,CERRO DE LAS CAMPANAS,CALLE,SIERRA PARNASO,619,,,NA,NA,,COLONIA,COLINAS DEL PADRE,,,,98085,32,ZACATECAS,56,Zacatecas,1,Zacatecas,1625,36,NA,,,Fijo,22.74465072,-102.5888769,2019-11,46112
12238,4595903,PROVEEDORA DE MATERIAS PRIMAS DE ZACATECAS,,461160,Comercio al por menor de dulces y materias primas para repostería,0 a 5 personas,CALLE,PASEO FRANCISCO GARCIA SALINAS,CALLE,PASEO DE LA CAÑADA,CALZADA,CALZADA DE LA VIRGEN,CALLE,NINGUNO,210,1,CENTRO Y PLAZA COMERCIAL,17,3,,COLONIA,LAS COLINAS II,CENTRO Y PLAZA COMERCIAL,PLAZA DIAMANTE DEL PARQUE,3 Y 4,98098,32,ZACATECAS,56,Zacatecas,1,Zacatecas,131A,1,4929238523,,,Fijo,22.76065975,-102.5467201,2010-07,46116
12536,6417572,SUPER VOY 1,LOS SENDEROS SA DE CV,462112,Comercio al por menor en minisupers,0 a 5 personas,BOULEVARD,TENAMAXTLE,CALLE,NINGUNO,PRIVADA,NINGUNO,CALLE,TOMÁS MÉNDEZ SOSA,0,SN,,NA,0,,FRACCIONAMIENTO,LOMAS DE LA ISABELICA,CENTRAL CAMIONERA,CENTRAL DE AUTOBUSES ZACATECAS,SN,98099,32,ZACATECAS,56,Zacatecas,1,Zacatecas,1131,1,NA,,WWW.LOSSENDEROS.COM.MX,Fijo,22.75476017,-102.5753728,2010-07,46211
12571,4596293,TIENADA,,461110,"Comercio al por menor en tiendas de abarrotes, ultramarinos y misceláneas",0 a 5 personas,PROLONGACION,FRESNILLO,CALLE,FRESNILLO,CALLEJON,JORGE JIMENEZ CANTU,PEATONAL,ARROYO DE MEXICAPAN,103,,,NA,NA,,COLONIA,RAFAEL HERNANDEZ,,,,98020,32,ZACATECAS,56,Zacatecas,1,Zacatecas,538,30,NA,,,Fijo,22.78747873,-102.5714235,2010-07,46111
13081,7079926,TIENDA DE ABARROTES AMAIRANY,,461110,"Comercio al por menor en tiendas de abarrotes, ultramarinos y misceláneas",0 a 5 personas,CALLE,BASILIO PEREZ GALLARDO,CALLE,JAIME NUNO,CALLE,MELCHOR OCAMPO,AVENIDA,BEGONIAS,101,,,NA,NA,,COLONIA,TERCERA SECCION JESUS GONZALEZ ORTEGA,,,,98087,32,ZACATECAS,56,Zacatecas,1,Zacatecas,735,28,NA,,,Fijo,22.76154381,-102.5926301,2019-11,46111
14141,4598844,TIENDA SUPER MARIO,,461130,Comercio al por menor de frutas y verduras frescas,0 a 5 personas,CALLE,RAMON CORONA,CALLE,IGNACIO DE LA LLAVE,CALLE,SANTOS DEGOLLADO,CALLE,SANTOS DEGOLLADO,402,C,,NA,0,,COLONIA,BENITO JUAREZ,,,,98080,32,ZACATECAS,56,Zacatecas,1,Zacatecas,074A,13,4929248320,,,Fijo,22.7620968,-102.5896058,2010-07,46113
14147,9307402,TIENDAS EXTRA S.A. DE C.V.,TIENDAS EXTRA SA DE CV,462112,Comercio al por menor en minisupers,0 a 5 personas,AVENIDA,JUAREZ,AVENIDA,HIDALGO,CALLE,JARDIN MORELOS,CALLEJON,CALLEJÓN DEL LAZO,138,,,NA,NA,,COLONIA,CENTRO,,,,98000,32,ZACATECAS,56,Zacatecas,1,Zacatecas,82,19,NA,,,Fijo,22.7726146,-102.576,2020-11,46211
14352,4615496,VENTA DE DULCES SIN NOMBRE,,461160,Comercio al por menor de dulces y materias primas para repostería,0 a 5 personas,CALLE,JOSE LOPEZ MARTINEZ,CALLE,JARDIN DE NIÑOS,CALLE,NINGUNO,CALZADA,CALZADA DEL PEREGRINO,76,,,NA,NA,,LOCALIDAD,PLATEROS,,,,99158,32,ZACATECAS,10,Fresnillo,165,Plateros,2075,46,NA,,,Fijo,23.2263848,-102.8407194,2010-07,46116
14363,7941339,VENTA DE DULCES TIPICOS,,461160,Comercio al por menor de dulces y materias primas para repostería,0 a 5 personas,CALZADA,CALZADA DEL PEREGRINO,CIRCUITO,CIRCUITO DEL ARROYO,CALLE,NINGUNO,CALLE,JOSÉ LÓPEZ MARTÍNEZ,96,,,NA,0,,LOCALIDAD,PLATEROS,,,,99158,32,ZACATECAS,10,Fresnillo,165,Plateros,2075,53,NA,,,Fijo,23.22777475,-102.840627,2019-11,46116
14375,4615688,VENTA DE DULCES Y ARTICULOS RELIGIOSOS SIN NOMBRE,,461160,Comercio al por menor de dulces y materias primas para repostería,0 a 5 personas,CALLE,JOSE LOPEZ MARTINEZ,CIRCUITO,CIRCUITO DEL ARROYO,CALLE,NINGUNO,CALZADA,CALZADA DEL PEREGRINO,99,,,NA,0,,LOCALIDAD,PLATEROS,,,,99158,32,ZACATECAS,10,Fresnillo,165,Plateros,2075,53,NA,,,Fijo,23.22762864,-102.8408031,2010-07,46116
14577,7941849,VENTA DE POLLO SIN NOMBRE,,461122,Comercio al por menor de carne de aves,0 a 5 personas,CALLE,LIRIOS,CALLE,VETA DE ESTAÑO,CALLE,VID,CALLE,MARGARITAS,201,,,NA,NA,,FRACCIONAMIENTO,EL VERGEL,,,,99080,32,ZACATECAS,10,Fresnillo,1,Fresnillo,2535,5,NA,,,Fijo,23.17043128,-102.8864029,2019-11,46112
14675,4630525,VERDURAS Y FRUTAS,,461130,Comercio al por menor de frutas y verduras frescas,0 a 5 personas,CALLE,MINA ZACATECAS,CALLE,MINA SAN MARTIN,CALLE,MINA CATA BLANCA,CALLE,MINA SIRENA,501,,EDIFICIO SIN NOMBRE,17,0,,COLONIA,MINERA,,,,98050,32,ZACATECAS,56,Zacatecas,1,Zacatecas,1061,34,NA,,,Fijo,22.77215848,-102.5868609,2014-12,46113
14704,6726952,TRANSPORTES FRIOS DEL BAJIO SA DE CV,TRANSPORTES FRIOS DEL BAJIO SA DE CV,484121,Autotransporte foráneo de productos agrícolas sin refrigeración,0 a 5 personas,OTRO (ESPECIFIQUE),CAXCANES,CALLE,2,CALZADA,Calzada de los Deportes,CALLE,Espiritu Santo,123,0,,NA,NA,,,BOULEVARES,,,,NA,32,ZACATECAS,56,Zacatecas,1,Zacatecas,646,6,NA,CECAFF_SC@HOTMAIL.COM,,Fijo,22.76487424,-102.5471222,2016-01,48412
14744,9360408,ALIMENTOS EN UNIDADES MOVILES SIN NOMBRE,,722330,Servicios de preparación de alimentos en unidades móviles,0 a 5 personas,CALLE,HERNAN CORTES,CALLE,CAMINO A LAS ANTENAS,AVENIDA,NUEVA ESPAÑA,CALLE,VIRREYES,1,SN,,NA,0,,COLONIA,LOMAS BIZANTINAS,,,,98099,32,ZACATECAS,56,Zacatecas,1,Zacatecas,1466,25,4922058724,,,Fijo,22.75403551,-102.5730537,2021-05,72233
14821,4615637,ANTOJITOS MEXICANOS,,722513,Restaurantes con servicio de preparación de antojitos,0 a 5 personas,CALLE,EMILIANO ZAPATA,CALLE,HIDALGO,CIRCUITO,CIRCUITO DEL ARROYO,CALZADA,CALZADA DEL PEREGRINO,45,,,NA,0,,LOCALIDAD,PLATEROS,,,,99158,32,ZACATECAS,10,Fresnillo,165,Plateros,2075,50,NA,,,Fijo,23.22813145,-102.8410102,2010-07,72251
15552,9323603,CASA TORRES HOTEL,,721111,Hoteles con otros servicios integrados,6 a 10 personas,CALLE,PRIMERO DE MAYO,CALLE,NOLASCO,CALLE,VILLAGRANA,CALLE,PRIMERA DE LA CUIDADELA,331,,,NA,NA,,COLONIA,CENTRO,,,,NA,32,ZACATECAS,56,Zacatecas,1,Zacatecas,1076,12,NA,RESERVACIONES@HOTELCASATORRES.COM,WWW.HOTELCASATORRES.COM,Fijo,22.77392697,-102.5718023,2020-11,72111
16122,7201939,COCINA TRADICIONAL ANITA,,722518,Restaurantes que preparan otro tipo de alimentos para llevar,0 a 5 personas,AVENIDA,MEXICO,ANDADOR,PLAZA CIVICA,ANDADOR,AVENIDA MEXICO,CALLE,NINGUNO,143,,,NA,NA,,COLONIA,FOVISSSTE,,,,98619,32,ZACATECAS,56,Zacatecas,1,Zacatecas,379,19,4929465740,CLAUDIA_LONA@OUTLOOK.COM,,Fijo,22.76253735,-102.5428648,2019-11,72251
16559,4631896,EL SAZON DEL TACO,,722514,Restaurantes con servicio de preparación de tacos y tortas,0 a 5 personas,AVENIDA,UNIVERSIDAD,CALLE,POZO HONDO,CALLE,ARMANDO GUERRA,AVENIDA,UNIVERSIDAD,214,,,NA,NA,,CIUDAD,FRACC PROGRESO,,,,98066,32,ZACATECAS,56,Zacatecas,1,Zacatecas,345,7,4925599540,,,Semifijo,22.76655139,-102.55899,2014-12,72251
16570,4598077,EL TACO DORADO,,722514,Restaurantes con servicio de preparación de tacos y tortas,0 a 5 personas,AVENIDA,SAN MARCOS,CALLE,ASTEROIDES,CALLE,OSA MAYOR,CALLE,COMETA,1230,A,,NA,NA,,COLONIA,LAS PALMAS,,,,98049,32,ZACATECAS,56,Zacatecas,1,Zacatecas,631,14,4921126647,,,Fijo,22.76984332,-102.5900114,2010-07,72251
16733,8805392,FLOAUTAS Y ANTOJITOS DE OBREGON,,722518,Restaurantes que preparan otro tipo de alimentos para llevar,0 a 5 personas,AVENIDA,GARCIA SALINAS,CALLE,LUIS MOYA SUR,CALLE,CRUZ ROJA,CALLE,ARTEAGA,428,,,NA,NA,,COLONIA,CENTRO,,,,99000,32,ZACATECAS,10,Fresnillo,1,Fresnillo,1005,21,NA,,,Fijo,23.17279931,-102.8646932,2019-11,72251
16814,4598517,GASTRONIMICA PIÑON,,722320,Servicios de preparación de alimentos para ocasiones especiales,0 a 5 personas,AVENIDA,FERROCARRIL,CALLE,CALLE DEL MINERO,CALLE,FELIPE ÁNGELES,CALLE,CALLE DEL MINERO,410,,,NA,NA,,COLONIA,FRANCISCO E GARCIA,,,,98070,32,ZACATECAS,56,Zacatecas,1,Zacatecas,699,38,4921212085,,,Fijo,22.7644533,-102.570845,2010-07,72232
18071,6280802,HOTEL CITY EXPRESS,IMPULSORA PLAZA DE ZACATECAS SA DE CV,721111,Hoteles con otros servicios integrados,11 a 30 personas,CALZADA,HÉROES DE CHAPULTEPEC,OTRO (ESPECIFIQUE),NINGUNO,OTRO (ESPECIFIQUE),NINGUNO,OTRO (ESPECIFIQUE),NINGUNO,1700,,,NA,0,,COLONIA,LA ESCONDIDA,,,,98047,32,ZACATECAS,56,Zacatecas,1,Zacatecas,1502,1,NA,CEZCL.CONTADOR@CITYEXPRESS.COM.MX,WWW.CITYEXPRESS.COM,Fijo,22.77479472,-102.6064427,2014-12,72111
18288,4624593,JUGOS Y LICUADOS ELPARAISO,,722515,"Cafeterías, fuentes de sodas, neverías, refresquerías y similares",0 a 5 personas,CALLE,20 DE NOVIEMBRE,BOULEVARD,PASEO DEL MINERAL,CALLE,MARGARITA MAZA DE JUAREZ,CALLE,FRANCISCO ZARCO,NA,SN,,NA,NA,,COLONIA,BENITO JUAREZ,,,,99020,32,ZACATECAS,10,Fresnillo,1,Fresnillo,863,10,NA,,,Fijo,23.18714735,-102.8691444,2014-12,72251
19280,7454163,MENUDERIA,,722513,Restaurantes con servicio de preparación de antojitos,0 a 5 personas,CALLE,SAN LORENZO,CALLE,INDUSTRIA ALGODONERA,CALLE,DR. BURTON E. GROSSMAN,CALLE,DANIEL PERALTA,105,,,NA,NA,,COLONIA,INDUSTRIAL,,,,99030,32,ZACATECAS,10,Fresnillo,1,Fresnillo,2484,25,4931118363,,,Fijo,23.18040164,-102.8834819,2019-11,72251
20455,4630714,ROSTICERIA EL FORASTERO,,722517,"Restaurantes con servicio de preparación de pizzas, hamburguesas, hot dogs y pollos rostizados para llevar",0 a 5 personas,AVENIDA,5 SEÑORES,CALLE,NUEVA CELAYA,CALLE,PEÑOLES,CALLE,BOLAÑOS,170,,,NA,NA,,FRACCIONAMIENTO,LAS HACIENDAS,,,,98089,32,ZACATECAS,56,Zacatecas,1,Zacatecas,067A,33,NA,,,Fijo,22.7635079,-102.5833679,2014-12,72251
21058,4627245,TACOS SILVIA,,722514,Restaurantes con servicio de preparación de tacos y tortas,0 a 5 personas,PROLONGACION,REFORMA,CALLE,SEGUNDA DE OAXACA,CALLE,JALPA,CALLE,OAXACA,970,,,NA,NA,,COLONIA,SECTOR LAGUNILLA,,,,99030,32,ZACATECAS,10,Fresnillo,1,Fresnillo,2516,12,NA,,,Fijo,23.17607888,-102.8809928,2014-12,72251
21443,7332822,TAQUERIA GARCIA,,722514,Restaurantes con servicio de preparación de tacos y tortas,0 a 5 personas,CALLE,JOSE VASCONCELOS,CALLE,VALLE,CALLE,MAYAS,CALLE,MEXICAS,NA,SN,,NA,NA,,COLONIA,MESOAMERICA,,,,99094,32,ZACATECAS,10,Fresnillo,1,Fresnillo,2037,5,NA,,,Fijo,23.16870936,-102.8388197,2019-11,72251
